CountryOrTerritory,StationName,StationCode,StationType,StationArea,PollutantCode,Pollutant,Latitude,Longitude,Altitude,MeasurementRegime,OperationalActivityBegin,OperationalActivityEnd,MeasurementMethodCode,MeasurementMethod,OperationYear,PollutantType,isAir
Germany,Heilbronn Weinsberger Straße-Ost,DEBW152,Traffic,Urban,PTAC043,Nitrogen dioxide ,49.146,9.22589,12.0,Continuous data collection,2008-12-31T23:00:01Z,2011-12-31T24:00:00+01:00,PMME064,Light scattering,2008,air,1
Germany,Rostock-Holbeinplatz,DEMV022,Traffic,Urban,PTAC027,indeno_123cd_pyrene in PM10 ,54.09262,12.099553,13.0,Continuous data collection,2008-01-24T23:00:01Z,2015-12-31T24:00:00+01:00,PMME064,Light scattering,2008,aerosol,0
Germany,Kellerwald,DEHE060,Background,Rural-Regional,PTAC044,Nitrogen monoxide ,51.154843,9.031754,68.0,Continuous data collection,2005-10-08T23:00:01Z,Not Specified,PMME045,Chemiluminescence,2005,air,1
Germany,Königs Wusterhausen,DEBB082,Background,Suburban,PTAC045,Nitrogen oxides ,52.294633000000005,13.619784,550.0,Continuous data collection,2008-03-19T23:00:01Z,2014-01-03T24:00:00+01:00,PMME045,Chemiluminescence,2008,air,1
Germany,Altenburg Theaterplatz,DETH011,Background,Urban,PTAC028,Lead in PM10 ,50.987758,12.437621,75.0,Continuous data collection,2018-12-31T23:00:01Z,Not Specified,PMME064,Light scattering,2018,aerosol,0
Germany,Annaberg-Buchholz,DESN001,Background,Urban,PTAC045,Nitrogen oxides ,50.570871999999994,12.997278,15.0,Continuous data collection,2012-12-31T23:00:01Z,Not Specified,PMME045,Chemiluminescence,2012,air,1
Germany,Schauinsland,DEUB004,Background,Rural-Regional,PTAC043,Nitrogen dioxide ,47.913256,7.908035000000001,15.0,Continuous data collection,2001-12-31T23:00:01Z,2014-12-31T24:00:00+01:00,PMME064,Light scattering,2001,air,1
Germany,Rostock Am Strande,DEMV020,Traffic,Urban,PTAC045,Nitrogen oxides ,54.092278,12.141994,13.0,Continuous data collection,2005-12-31T23:00:01Z,Not Specified,PMME045,Chemiluminescence,2005,air,1
Germany,Jüchen-Hochneukirch,DENW337,Industrial,Rural-Near_city,PTAC051,Particulate matter < 10 µm ,51.097638,6.469462999999999,610.0,Continuous data collection,2014-01-05T23:00:01Z,2016-12-31T24:00:00+01:00,PMME044,UV fluorescence,2014,aerosol,0
Germany,Bamberg/Löwenbrücke,DEBY009,Background,Urban,PTAC015,Carbon monoxide ,49.89833,10.887686,193.0,Continuous data collection,1977-12-31T23:00:01Z,2013-07-08T24:00:00+01:00,PMME053,Infrared gas filter correlation,1977,air,1
Germany,Freiberg,DESN017,Background,Urban,PTAC044,Nitrogen monoxide ,50.9163,13.346826,209.0,Continuous data collection,1994-08-31T23:00:01Z,2012-12-31T24:00:00+01:00,PMME045,Chemiluminescence,1994,air,1
Germany,Gelsenkirchen-Bismarck,DENW022,Background,Suburban,PTAC043,Nitrogen dioxide ,51.533640000000005,7.101868,200.0,Continuous data collection,2011-12-31T23:00:01Z,Not Specified,PMME045,Chemiluminescence,2011,air,1
Germany,Lübeck Moislinger Allee,DESH053,Traffic,Urban,PTAC039,Nickel in PM10 ,53.862237,10.67332,619.0,Continuous data collection,2015-12-31T23:00:01Z,2016-12-31T24:00:00+01:00,PMME044,UV fluorescence,2015,aerosol,0
Germany,Mainz-Zitadelle,DERP009,Background,Urban,PTAC052,Particulate matter < 2.5 µm ,49.995016,8.273978999999999,15.0,Continuous data collection,2014-12-31T23:00:01Z,Not Specified,PMME064,Light scattering,2014,aerosol,0
Germany,Berlin Schildhornstraße,DEBE061,Traffic,Urban,PTAC051,Particulate matter < 10 µm ,52.463611,13.31825,11.0,Continuous data collection,1999-03-31T23:00:01Z,2014-12-31T24:00:00+01:00,PMME031,Beta ray attenuation,1999,aerosol,0
Germany,Wittenberg/Dessauer Strasse,DEST092,Traffic,Urban,PTAC039,Nickel in PM10 ,51.867471,12.59827,210.0,Continuous data collection,2013-12-31T23:00:01Z,2014-12-31T24:00:00+01:00,PMME031,Beta ray attenuation,2013,aerosol,0
Germany,Pirmasens-Innenstadt,DERP060,Background,Urban,PTAC044,Nitrogen monoxide ,49.191996,7.614573,624.0,Continuous data collection,2014-12-09T23:00:01Z,Not Specified,PMME045,Chemiluminescence,2014,air,1
Germany,Emsland,DENI043,Background,Suburban,PTAC052,Particulate matter < 2.5 µm ,52.49855,7.31747,581.0,Continuous data collection,2009-12-31T23:00:01Z,2019-12-10T24:00:00+01:00,PMME041,Nephelometry + BETA,2009,aerosol,0
Germany,Potsdam-Zentrum,DEBB021,Background,Urban,PTAC005,Ammonium in PM10 ,52.401352,13.059944999999999,64.0,Continuous data collection,2012-12-31T23:00:01Z,2013-12-27T24:00:00+01:00,PMME064,Light scattering,2012,aerosol,0
Germany,Nürnberg/Bahnhof,DEBY053,Traffic,Urban,PTAC044,Nitrogen monoxide ,49.44591,11.088444,197.0,Continuous data collection,1986-08-31T23:00:01Z,Not Specified,PMME045,Chemiluminescence,1986,air,1
Germany,Ludwigshafen-Mundenheim,DERP003,Industrial,Urban,PTAC051,Particulate matter < 10 µm ,49.455508,8.425897,203.0,Periodic data collection,2000-12-31T23:00:01Z,2011-05-31T24:00:00+01:00,PMME031,Beta ray attenuation,2000,aerosol,0
Germany,Reutlingen Lederstraße-Ost,DEBW147,Traffic,Urban,PTAC044,Nitrogen monoxide ,48.489329999999995,9.21079,65.0,Continuous data collection,2007-03-20T23:00:01Z,Not Specified,PMME045,Chemiluminescence,2007,air,1
Germany,Possen,DETH042,Background,Rural-Remote,PTAC044,Nitrogen monoxide ,51.333333,10.867188,210.0,Continuous data collection,1996-01-11T23:00:01Z,Not Specified,PMME045,Chemiluminescence,1996,air,1
Germany,Hattingen-Blankenstein,DENW029,Background,Suburban,PTAC044,Nitrogen monoxide ,51.403007,7.208546000000001,200.0,Continuous data collection,1986-11-30T23:00:01Z,2011-12-31T24:00:00+01:00,PMME045,Chemiluminescence,1986,air,1
Germany,Zingst,DEUB028,Background,Rural,PTAC013,calcium in PM2.5 ,54.436985,12.721938,16.0,Continuous data collection,2010-12-31T23:00:01Z,2013-12-31T24:00:00+01:00,PMME064,Light scattering,2010,aerosol,0
Germany,Neuglobsow,DEUB030,Background,Rural-Regional,PTAC068,Vanedium in PM10 ,53.141303,13.031661999999999,76.0,Continuous data collection,2003-12-31T23:00:01Z,Not Specified,PMME024,Light absorption,2003,aerosol,0
Germany,Bielefeld-Ost,DENW067,Background,Urban,PTAC051,Particulate matter < 10 µm ,52.023154999999996,8.548362,590.0,Continuous data collection,2002-12-31T23:00:01Z,2011-12-31T24:00:00+01:00,PMME041,Nephelometry + BETA,2002,aerosol,0
Germany,Leipzig-Mitte,DESN025,Traffic,Urban,PTAC028,Lead in PM10 ,51.344164,12.377163000000001,617.0,Continuous data collection,1998-01-14T23:00:01Z,Not Specified,PMME044,UV fluorescence,1998,aerosol,0
Germany,Dortmund-Eving,DENW008,Background,Urban,PTAC052,Particulate matter < 2.5 µm ,51.536893,7.457408999999999,70.0,Continuous data collection,2011-01-11T23:00:01Z,2011-12-31T24:00:00+01:00,PMME041,Nephelometry + BETA,2011,aerosol,0
Germany,Schwabach/Angerstraße,DEBY188,Background,Urban,PTAC049,Ozone ,49.32273,11.02792,12.0,Continuous data collection,2012-06-30T23:00:01Z,Not Specified,PMME056,Ultraviolet (UV) photometry,2012,air,1
Germany,Regensburg/Rathaus,DEBY063,Traffic,Urban,PTAC051,Particulate matter < 10 µm ,49.015245,12.101557000000001,12.0,Continuous data collection,2000-01-31T23:00:01Z,Not Specified,PMME031,Beta ray attenuation,2000,aerosol,0
Germany,Bebra,DEHE032,Background,Urban,PTAC051,Particulate matter < 10 µm ,50.970024,9.80026,199.0,Continuous data collection,2011-11-24T23:00:01Z,Not Specified,PMME041,Nephelometry + BETA,2011,aerosol,0
Germany,Rostock-Stuthof,DEMV007,Background,Suburban,PTAC049,Ozone ,54.16155500000001,12.174105,68.0,Continuous data collection,1992-12-31T23:00:01Z,Not Specified,PMME056,Ultraviolet (UV) photometry,1992,air,1
Germany,Heppenheim-Lehrstraße,DEHE063,Traffic,Urban,PTAC045,Nitrogen oxides ,49.643238000000004,8.642000000000001,68.0,Continuous data collection,2010-12-31T23:00:01Z,Not Specified,PMME045,Chemiluminescence,2010,air,1
Germany,Hannover,DENI054,Background,Urban,PTAC009,Benzene ,52.36292,9.70612,581.0,Continuous data collection,2007-12-31T23:00:01Z,2013-12-31T24:00:00+01:00,PMME045,Chemiluminescence,2007,air,1
Germany,Bernhausen,DEBW042,Background,Suburban,PTAC009,Benzene ,48.678069,9.227769,195.0,Continuous data collection,2010-12-31T23:00:01Z,2016-12-31T24:00:00+01:00,PMME028,Non-dispersive infrared spectroscopy (NDIR),2010,air,1
Germany,Saarbrücken-City,DESL012,Background,Urban,PTAC052,Particulate matter < 2.5 µm ,49.233464,6.987601,208.0,Continuous data collection,2006-12-31T23:00:01Z,2018-12-31T24:00:00+01:00,PMME041,Nephelometry + BETA,2006,aerosol,0
Germany,Wörth-Marktplatz,DERP025,Background,Urban,PTAC015,Carbon monoxide ,49.052284,8.253538,74.0,Continuous data collection,1990-05-30T23:00:01Z,Not Specified,PMME053,Infrared gas filter correlation,1990,air,1
Germany,Bottrop Peterstraße,DENW201,Traffic,Urban,PTAC051,Particulate matter < 10 µm ,51.519262,6.924268,205.0,Continuous data collection,2011-01-02T23:00:01Z,2011-12-12T24:00:00+01:00,PMME019,Tapered Element Oscillating Microbalance (TEOM),2011,aerosol,0
Germany,Pfälzerwald-Hortenkopf,DERP017,Background,Rural,PTAC043,Nitrogen dioxide ,49.270263,7.826407000000001,74.0,Continuous data collection,1985-12-31T23:00:01Z,2016-12-31T24:00:00+01:00,PMME045,Chemiluminescence,1985,air,1
Germany,Bottrop-Welheim,DENW021,Industrial,Urban,PTAC049,Ozone ,51.525954999999996,6.97688,200.0,Continuous data collection,1990-08-31T23:00:01Z,2011-12-31T24:00:00+01:00,PMME056,Ultraviolet (UV) photometry,1990,air,1
Germany,Kassel-Mitte,DEHE013,Background,Urban,PTAC043,Nitrogen dioxide ,51.314248,9.483397,570.0,Continuous data collection,1976-12-31T23:00:01Z,Not Specified,PMME045,Chemiluminescence,1976,air,1
Germany,Hildesheim Verkehr,DENI066,Traffic,Urban,PTAC015,Carbon monoxide ,52.150775,9.950223,13.0,Continuous data collection,2019-01-14T23:00:01Z,Not Specified,PMME053,Infrared gas filter correlation,2019,air,1
Germany,"Brandenburg, Neuendorfer Str.",DEBB049,Traffic,Urban,PTAC032,magnesium in PM2.5 ,52.409309,12.548376,187.0,Continuous data collection,2016-12-31T23:00:01Z,2017-12-31T24:00:00+01:00,PMME024,Light absorption,2016,aerosol,0
Germany,Borna,DESN006,Traffic,Urban,PTAC043,Nitrogen dioxide ,51.125,12.493056,209.0,Continuous data collection,2012-12-31T23:00:01Z,Not Specified,PMME045,Chemiluminescence,2012,air,1
Germany,Zittau-Ost,DESN045,Background,Suburban,PTAC028,Lead in PM10 ,50.892377,14.822845999999998,75.0,Continuous data collection,2018-12-31T23:00:01Z,Not Specified,PMME064,Light scattering,2018,aerosol,0
Germany,Frankfurt-Ost,DEHE008,Background,Urban,PTAC043,Nitrogen dioxide ,50.125332,8.746343,195.0,Continuous data collection,1984-02-29T23:00:01Z,Not Specified,PMME045,Chemiluminescence,1984,air,1
Germany,Tiefenbach/Altenschneeberg,DEBY072,Background,Rural-Regional,PTAC049,Ozone ,49.438464,12.548869,12.0,Continuous data collection,1983-12-31T23:00:01Z,Not Specified,PMME056,Ultraviolet (UV) photometry,1983,air,1
Germany,Mannheim Friedrichsring,DEBW098,Traffic,Urban,PTAC010,Cadmium in PM10 ,49.49256,8.47204,12.0,Continuous data collection,2015-12-31T23:00:01Z,2016-12-31T24:00:00+01:00,PMME064,Light scattering,2015,aerosol,0
Germany,Andechs/Rothenfeld,DEBY109,Background,Rural-Regional,PTAC039,Nickel in PM10 ,47.968753,11.220172,566.0,Continuous data collection,2018-12-31T23:00:01Z,Not Specified,PMME045,Chemiluminescence,2018,aerosol,0
Germany,Leizen,DEMV024,Background,Rural,PTAC051,Particulate matter < 10 µm ,53.396347999999996,12.463928999999998,13.0,Periodic data collection,2010-06-15T23:00:01Z,2013-12-31T24:00:00+01:00,PMME031,Beta ray attenuation,2010,aerosol,0
Germany,Wittenberg/Dessauer Strasse,DEST092,Traffic,Urban,PTAC007,Arsenic in PM10 ,51.867471,12.59827,75.0,Continuous data collection,2014-12-31T23:00:01Z,2015-12-31T24:00:00+01:00,PMME064,Light scattering,2014,aerosol,0
Germany,Mülheim-Styrum,DENW038,Background,Urban,PTAC010,Cadmium in PM10 ,51.453459,6.86505,69.0,Continuous data collection,2009-12-31T23:00:01Z,Not Specified,PMME064,Light scattering,2009,aerosol,0
Germany,Darmstadt,DEHE001,Background,Urban,PTAC062,Sulphur dioxide ,49.872303,8.664619,12.0,Continuous data collection,1995-07-31T23:00:01Z,Not Specified,PMME044,UV fluorescence,1995,air,1
Germany,Leverkusen Gustav-Heinemann-Straße,DENW355,Traffic,Urban,PTAC044,Nitrogen monoxide ,51.031473,7.010934,74.0,Continuous data collection,2015-01-06T23:00:01Z,Not Specified,PMME045,Chemiluminescence,2015,air,1
Germany,IGWEST,DEHB010,Industrial,Suburban,PTAC010,Cadmium in PM10 ,53.150065000000005,8.71137,12.0,Continuous data collection,2019-01-31T23:00:01Z,Not Specified,PMME064,Light scattering,2019,aerosol,0
Germany,"Frankfurt (Oder), Leipziger Str.",DEBB045,Traffic,Urban,PTAC051,Particulate matter < 10 µm ,52.337336,14.538595,11.0,Continuous data collection,2017-12-31T23:00:01Z,2018-12-31T24:00:00+01:00,PMME064,Light scattering,2017,aerosol,0
Germany,Hannover Verkehr,DENI048,Traffic,Urban,PTAC051,Particulate matter < 10 µm ,52.359478,9.7155,70.0,Continuous data collection,2018-02-23T23:00:01Z,2018-12-31T24:00:00+01:00,PMME064,Light scattering,2018,aerosol,0
Germany,Altenburg Theaterplatz,DETH011,Background,Urban,PTAC044,Nitrogen monoxide ,50.987758,12.437621,210.0,Continuous data collection,1993-07-27T23:00:01Z,Not Specified,PMME045,Chemiluminescence,1993,air,1
Germany,Cottbus,DEBB064,Background,Urban,PTAC030,"m,p-Xylene ",51.746848,14.334470000000001,11.0,Continuous data collection,2014-12-31T23:00:01Z,2015-12-31T24:00:00+01:00,PMME064,Light scattering,2014,air,1
Germany,Elsterwerda,DEBB007,Background,Suburban,PTAC009,Benzene ,51.462734000000005,13.526796,190.0,Continuous data collection,2012-12-31T23:00:01Z,2013-12-31T24:00:00+01:00,PMME024,Light absorption,2012,air,1
Germany,"Cottbus, W.-Külz-Str.",DEBB087,Traffic,Urban,PTAC052,Particulate matter < 2.5 µm ,51.754129999999996,14.325548999999999,11.0,Continuous data collection,2012-12-31T23:00:01Z,2014-12-31T24:00:00+01:00,PMME064,Light scattering,2012,aerosol,0
Germany,Duisburg Kardinal-Galen-Straße,DENW112,Traffic,Urban,PTAC051,Particulate matter < 10 µm ,51.437686,6.771866999999999,71.0,Continuous data collection,2011-12-31T23:00:01Z,2013-08-12T24:00:00+01:00,PMME019,Tapered Element Oscillating Microbalance (TEOM),2011,aerosol,0
Germany,Göttingen,DENI042,Background,Suburban,PTAC063,Toluene ,51.55107,9.949760000000001,70.0,Continuous data collection,2007-12-31T23:00:01Z,2013-12-31T24:00:00+01:00,PMME064,Light scattering,2007,air,1
Germany,Horb Neckarstraße,DEBW202,Background,Suburban,PTAC043,Nitrogen dioxide ,48.469139,8.630253,12.0,Continuous data collection,2013-12-31T23:00:01Z,2014-12-31T24:00:00+01:00,PMME064,Light scattering,2013,air,1
Germany,Mainz-Mombach,DERP007,Background,Urban,PTAC015,Carbon monoxide ,50.01755,8.216803,604.0,Continuous data collection,1977-12-31T23:00:01Z,Not Specified,PMME053,Infrared gas filter correlation,1977,air,1
Germany,Braunschweig Verkehr_alt,DENI008,Traffic,Urban,PTAC043,Nitrogen dioxide ,52.263331,10.524609,70.0,Continuous data collection,2011-12-28T23:00:01Z,Not Specified,PMME064,Light scattering,2011,air,1
Germany,Münster Weseler Straße 14,DENW156,Traffic,Urban,PTAC063,Toluene ,51.95479,7.619733,14.0,Continuous data collection,2005-04-28T23:00:01Z,2011-01-07T24:00:00+01:00,PMME064,Light scattering,2005,air,1
Germany,Neuglobsow,DEUB030,Background,Rural-Regional,PTAC049,Ozone ,53.141303,13.031661999999999,16.0,Continuous data collection,2011-09-21T23:00:01Z,Not Specified,PMME056,Ultraviolet (UV) photometry,2011,air,1
Germany,Ludwigshafen-Heinigstraße,DERP041,Traffic,Urban,PTAC045,Nitrogen oxides ,49.478497999999995,8.44385,74.0,Continuous data collection,2000-10-31T23:00:01Z,Not Specified,PMME045,Chemiluminescence,2000,air,1
Germany,Neuglobsow,DEUB030,Background,Rural-Regional,PTAC032,magnesium in PM2.5 ,53.141303,13.031661999999999,76.0,Continuous data collection,2010-12-31T23:00:01Z,2011-12-31T24:00:00+01:00,PMME024,Light absorption,2010,aerosol,0
Germany,Krautscheid / Seifen,DERP044,Industrial,Rural,PTAC051,Particulate matter < 10 µm ,50.699438,7.375278999999999,74.0,Continuous data collection,2000-12-14T23:00:01Z,Not Specified,PMME064,Light scattering,2000,aerosol,0
Germany,Weimar Steubenstr.,DETH083,Traffic,Urban,PTAC051,Particulate matter < 10 µm ,50.977462,11.32607,625.0,Continuous data collection,2005-04-12T23:00:01Z,2013-04-24T24:00:00+01:00,PMME044,UV fluorescence,2005,aerosol,0
Germany,Unterharz / Friedrichsbrunn,DEST098,Background,Rural-Regional,PTAC051,Particulate matter < 10 µm ,51.662434999999995,11.043386,637.0,Continuous data collection,2013-01-23T23:00:01Z,Not Specified,PMME041,Nephelometry + BETA,2013,aerosol,0
Germany,Paderborn Friedrichstraße 29,DENW158,Traffic,Urban,PTAC030,"m,p-Xylene ",51.718775,8.747114999999999,71.0,Periodic data collection,2005-04-28T23:00:01Z,Not Specified,PMME064,Light scattering,2005,air,1
Germany,"Frankfurt (Oder), 1997-2014",DEBB042,Background,Suburban,PTAC043,Nitrogen dioxide ,52.339953,14.531918,187.0,Continuous data collection,1997-04-21T23:00:01Z,2014-05-05T24:00:00+01:00,PMME045,Chemiluminescence,1997,air,1
Germany,Gülzow,DEMV004,Background,Rural,PTAC027,indeno_123cd_pyrene in PM10 ,53.817775,12.064708,68.0,Continuous data collection,2003-12-31T23:00:01Z,Not Specified,PMME064,Light scattering,2003,aerosol,0
Germany,Schwarzwald-Süd,DEBW031,Background,Rural-Regional,PTAC009,Benzene ,47.809892,7.764528,195.0,Continuous data collection,1997-04-17T23:00:01Z,2016-12-31T24:00:00+01:00,PMME028,Non-dispersive infrared spectroscopy (NDIR),1997,air,1
Germany,Zingst,DEUB028,Background,Rural,PTAC055,potassium in PM2.5 ,54.436985,12.721938,214.0,Continuous data collection,2010-05-31T23:00:01Z,2010-12-31T24:00:00+01:00,PMME045,Chemiluminescence,2010,aerosol,0
Germany,Potsdam Zeppelinstr.,DEBB054,Traffic,Urban,PTAC039,Nickel in PM10 ,52.393932,13.037474000000001,11.0,Continuous data collection,2013-12-31T23:00:01Z,2015-12-31T24:00:00+01:00,PMME064,Light scattering,2013,aerosol,0
Germany,Spreewald,DEBB066,Background,Rural-Regional,PTAC043,Nitrogen dioxide ,51.897597999999995,14.057064000000002,191.0,Continuous data collection,2003-04-17T23:00:01Z,Not Specified,PMME045,Chemiluminescence,2003,air,1
Germany,Stuttgart Arnulf-Klett-Platz,DEBW099,Traffic,Urban,PTAC028,Lead in PM10 ,48.78313,9.180719999999999,569.0,Continuous data collection,2014-12-31T23:00:01Z,2015-12-31T24:00:00+01:00,PMME045,Chemiluminescence,2014,aerosol,0
Germany,Bochum-Stahlhausen,DENW117,Industrial,Urban,PTAC028,Lead in PM10 ,51.482541999999995,7.186095,600.0,Continuous data collection,2002-01-27T23:00:01Z,2016-12-31T24:00:00+01:00,PMME045,Chemiluminescence,2002,aerosol,0
Germany,Duisburg-Bruckhausen,DENW338,Industrial,Urban,PTAC052,Particulate matter < 2.5 µm ,51.485492,6.735431,610.0,Continuous data collection,2013-12-31T23:00:01Z,Not Specified,PMME031,Beta ray attenuation,2013,aerosol,0
Germany,Braunschweig,DENI011,Background,Suburban,PTAC049,Ozone ,52.22694,10.47364,13.0,Continuous data collection,2009-12-31T23:00:01Z,Not Specified,PMME056,Ultraviolet (UV) photometry,2009,air,1
Germany,München/Johanneskirchen,DEBY089,Background,Suburban,PTAC052,Particulate matter < 2.5 µm ,48.173194,11.648036,198.0,Continuous data collection,2011-11-28T23:00:01Z,Not Specified,PMME041,Nephelometry + BETA,2011,aerosol,0
Germany,"Bernau, Lohmühlenstr.",DEBB068,Traffic,Urban,PTAC039,Nickel in PM10 ,52.677651000000004,13.582269,65.0,Continuous data collection,2019-12-31T23:00:01Z,Not Specified,PMME064,Light scattering,2019,aerosol,0
Germany,Hagen Graf-von-Galen-Ring,DENW133,Traffic,Urban,PTAC048,o-Xylene ,51.362818,7.46355,14.0,Continuous data collection,2008-01-31T23:00:01Z,2017-12-31T24:00:00+01:00,PMME064,Light scattering,2008,air,1
Germany,Borken-Gemen,DENW081,Background,Rural-Near_city,PTAC062,Sulphur dioxide ,51.862041999999995,6.874469,593.0,Continuous data collection,2011-12-31T23:00:01Z,2019-01-04T24:00:00+01:00,PMME044,UV fluorescence,2011,air,1
Germany,Schwerte Holzener Weg,DENW282,Industrial,Urban,PTAC039,Nickel in PM10 ,51.444140000000004,7.555,71.0,Continuous data collection,2009-07-01T23:00:01Z,2010-12-31T24:00:00+01:00,PMME064,Light scattering,2009,aerosol,0
Germany,Herzfelde (Rüdersdorf),DEBB081,Industrial,Rural-Near_city,PTAC043,Nitrogen dioxide ,52.497549,13.849006,545.0,Continuous data collection,2007-09-23T23:00:01Z,2010-06-08T24:00:00+01:00,PMME045,Chemiluminescence,2007,air,1
Germany,Carlsfeld,DESN049,Background,Rural-Remote,PTAC049,Ozone ,50.431321999999994,12.611125,617.0,Continuous data collection,2012-12-31T23:00:01Z,Not Specified,PMME056,Ultraviolet (UV) photometry,2012,air,1
Germany,Westpfalz-Waldmohr,DERP013,Background,Rural,PTAC049,Ozone ,49.423116,7.293543,210.0,Continuous data collection,1983-12-31T23:00:01Z,Not Specified,PMME056,Ultraviolet (UV) photometry,1983,air,1
Germany,Luckenwalde,DEBB109,Background,Urban,PTAC043,Nitrogen dioxide ,52.089678,13.174949,11.0,Continuous data collection,2019-12-31T23:00:01Z,Not Specified,PMME045,Chemiluminescence,2019,air,1
Germany,Ulm,DEBW019,Background,Urban,PTAC028,Lead in PM10 ,48.396836,9.979030999999999,11.0,Continuous data collection,2015-12-31T23:00:01Z,2016-12-31T24:00:00+01:00,PMME064,Light scattering,2015,aerosol,0
Germany,Lübeck Fackenburger Allee,DESH055,Traffic,Urban,PTAC044,Nitrogen monoxide ,53.87453000000001,10.664881,15.0,Continuous data collection,2014-12-31T23:00:01Z,Not Specified,PMME045,Chemiluminescence,2014,air,1
Germany,Bielefeld Detmolder Straße,DENW200,Traffic,Urban,PTAC051,Particulate matter < 10 µm ,52.00562,8.55279,615.0,Continuous data collection,2014-12-31T23:00:01Z,Not Specified,PMME041,Nephelometry + BETA,2014,aerosol,0
Germany,Saarbrücken-Eschberg,DESL011,Background,Urban,PTAC044,Nitrogen monoxide ,49.237227000000004,7.036322,620.0,Continuous data collection,1983-06-30T23:00:01Z,Not Specified,PMME045,Chemiluminescence,1983,air,1
Germany,Erfurt Krämpferstr.,DETH020,Background,Urban,PTAC007,Arsenic in PM10 ,50.979455,11.037924,75.0,Continuous data collection,2010-12-31T23:00:01Z,2011-12-31T24:00:00+01:00,PMME064,Light scattering,2010,aerosol,0
Germany,Frankfurt-Schwanheim,DEHE135,Background,Urban,PTAC043,Nitrogen dioxide ,50.075464000000004,8.576305,67.0,Continuous data collection,2017-08-01T23:00:01Z,Not Specified,PMME045,Chemiluminescence,2017,air,1
Germany,Landshut/Podewilsstraße,DEBY033,Traffic,Urban,PTAC007,Arsenic in PM10 ,48.539801000000004,12.157051,196.0,Continuous data collection,2011-12-31T23:00:01Z,2012-12-31T24:00:00+01:00,PMME028,Non-dispersive infrared spectroscopy (NDIR),2011,aerosol,0
Germany,Nürnberg/Von-der-Tann-Straße,DEBY120,Traffic,Urban,PTAC009,Benzene ,49.440478000000006,11.036096,573.0,Continuous data collection,2012-12-31T23:00:01Z,Not Specified,PMME045,Chemiluminescence,2012,air,1
Germany,Zingst,DEUB028,Background,Rural,PTAC042,Nitrate in PM2.5 ,54.436985,12.721938,660.0,Continuous data collection,2010-05-31T23:00:01Z,2010-12-31T24:00:00+01:00,PMME056,Ultraviolet (UV) photometry,2010,aerosol,0
Germany,Schauinsland,DEUB004,Background,Rural-Regional,PTAC038,n-Hexane ,47.913256,7.908035000000001,75.0,Continuous data collection,2015-12-31T23:00:01Z,Not Specified,PMME064,Light scattering,2015,air,1
Germany,Halle/Riebeckplatz,DEST133,Traffic,Urban,PTAC052,Particulate matter < 2.5 µm ,51.475778000000005,11.98385,75.0,Periodic data collection,2019-05-31T23:00:01Z,2019-12-31T24:00:00+01:00,PMME041,Nephelometry + BETA,2019,aerosol,0
Germany,Recklinghausen Bochumer Straße,DENW220,Traffic,Urban,PTAC051,Particulate matter < 10 µm ,51.577442,7.213413,610.0,Continuous data collection,2007-12-18T23:00:01Z,2011-01-05T24:00:00+01:00,PMME019,Tapered Element Oscillating Microbalance (TEOM),2007,aerosol,0
Germany,Berlin Herrmannplatz,DEBE097,Traffic,Urban,PTAC043,Nitrogen dioxide ,52.487391,13.424705,65.0,Continuous data collection,2006-12-31T23:00:01Z,2017-12-31T24:00:00+01:00,PMME064,Light scattering,2006,air,1
Germany,Görlitz,DESN020,Traffic,Urban,PTAC027,indeno_123cd_pyrene in PM10 ,51.155801000000004,14.973957999999998,209.0,Continuous data collection,1998-02-02T23:00:01Z,Not Specified,PMME031,Beta ray attenuation,1998,aerosol,0
Germany,Neuglobsow,DEUB030,Background,Rural-Regional,PTAC006,Ammonium in PM2.5 ,53.141303,13.031661999999999,650.0,Continuous data collection,2010-05-31T23:00:01Z,2010-12-31T24:00:00+01:00,PMME056,Ultraviolet (UV) photometry,2010,aerosol,0
Germany,Dallgow-Döberitz,DEBB110,Background,Suburban,PTAC043,Nitrogen dioxide ,52.539504,13.048779,11.0,Continuous data collection,2019-06-18T23:00:01Z,Not Specified,PMME045,Chemiluminescence,2019,air,1
Germany,Solling,DENI019,Background,Rural,PTAC045,Nitrogen oxides ,51.759751,9.577714,200.0,Continuous data collection,1985-10-10T23:00:01Z,2010-03-02T24:00:00+01:00,PMME045,Chemiluminescence,1985,air,1
Germany,Weil am Rhein,DEBW023,Background,Suburban,PTAC051,Particulate matter < 10 µm ,47.588152,7.633271000000001,195.0,Continuous data collection,1999-03-30T23:00:01Z,Not Specified,PMME028,Non-dispersive infrared spectroscopy (NDIR),1999,aerosol,0
Germany,Stuttgart Am Neckartor,DEBW118,Traffic,Urban,PTAC051,Particulate matter < 10 µm ,48.7881,9.19101,570.0,Continuous data collection,2017-12-31T23:00:01Z,Not Specified,PMME064,Light scattering,2017,aerosol,0
Germany,Aschaffenburg/Bussardweg,DEBY005,Background,Suburban,PTAC051,Particulate matter < 10 µm ,49.991518,9.117973,12.0,Continuous data collection,2000-01-31T23:00:01Z,2012-09-11T24:00:00+01:00,PMME041,Nephelometry + BETA,2000,aerosol,0
Germany,Kassel-Fünffenster-Str.,DEHE049,Traffic,Urban,PTAC030,"m,p-Xylene ",51.312076,9.49112,12.0,Continuous data collection,2010-12-31T23:00:01Z,Not Specified,PMME064,Light scattering,2010,air,1
Germany,Nürnberg/Von-der-Tann-Straße,DEBY120,Traffic,Urban,PTAC010,Cadmium in PM10 ,49.440478000000006,11.036096,67.0,Continuous data collection,2011-12-31T23:00:01Z,Not Specified,PMME064,Light scattering,2011,aerosol,0
Germany,Hasenholz,DEBB053,Background,Rural-Regional,PTAC055,potassium in PM2.5 ,52.563835,14.015251999999998,543.0,Continuous data collection,2013-12-31T23:00:01Z,2014-12-31T24:00:00+01:00,PMME045,Chemiluminescence,2013,aerosol,0
Germany,Schauinsland,DEUB004,Background,Rural-Regional,PTAC041,Nitrate in PM10 ,47.913256,7.908035000000001,75.0,Continuous data collection,1999-12-31T23:00:01Z,2010-12-31T24:00:00+01:00,PMME064,Light scattering,1999,aerosol,0
Germany,"Cottbus, W.-Külz-Str.",DEBB087,Traffic,Urban,PTAC006,Ammonium in PM2.5 ,51.754129999999996,14.325548999999999,551.0,Continuous data collection,2011-12-31T23:00:01Z,2012-12-31T24:00:00+01:00,PMME045,Chemiluminescence,2011,aerosol,0
Germany,Hoyerswerda,DESN050,Background,Urban,PTAC044,Nitrogen monoxide ,51.436885,14.254335000000001,15.0,Continuous data collection,1994-08-31T23:00:01Z,2010-01-03T24:00:00+01:00,PMME045,Chemiluminescence,1994,air,1
Germany,"Cottbus, W.-Külz-Str.",DEBB087,Traffic,Urban,PTAC007,Arsenic in PM10 ,51.754129999999996,14.325548999999999,11.0,Continuous data collection,2010-12-31T23:00:01Z,2011-12-31T24:00:00+01:00,PMME064,Light scattering,2010,aerosol,0
Germany,"Cottbus, W.-Külz-Str.",DEBB087,Traffic,Urban,PTAC039,Nickel in PM10 ,51.754129999999996,14.325548999999999,64.0,Continuous data collection,2012-12-31T23:00:01Z,2014-12-31T24:00:00+01:00,PMME064,Light scattering,2012,aerosol,0
Germany,Garz,DEMV026,Background,Rural,PTAC045,Nitrogen oxides ,54.323514,13.342138,70.0,Continuous data collection,2012-12-31T23:00:01Z,Not Specified,PMME045,Chemiluminescence,2012,air,1
Germany,Mainz-Parcusstraße,DERP010,Traffic,Urban,PTAC063,Toluene ,50.001026,8.261130999999999,74.0,Continuous data collection,1978-12-31T23:00:01Z,2011-12-31T24:00:00+01:00,PMME004,Gas chromatography,1978,air,1
Germany,Waldhof,DEUB005,Background,Rural,PTAC024,Ethane ,52.800773,10.756733,76.0,Continuous data collection,1997-12-31T23:00:01Z,Not Specified,PMME024,Light absorption,1997,air,1
Germany,Gießen-Westanlage,DEHE061,Traffic,Urban,PTAC048,o-Xylene ,50.584108,8.668579,12.0,Continuous data collection,2010-12-31T23:00:01Z,Not Specified,PMME064,Light scattering,2010,air,1
Germany,Essen Hombrucher Straße 21,DENW171,Traffic,Urban,PTAC043,Nitrogen dioxide ,51.457392,7.047233,71.0,Continuous data collection,2004-07-26T23:00:01Z,2015-09-10T24:00:00+01:00,PMME064,Light scattering,2004,air,1
Germany,Brandenburg a.d. Havel,DEBB055,Background,Suburban,PTAC039,Nickel in PM10 ,52.420442,12.552303,64.0,Continuous data collection,2016-12-31T23:00:01Z,2017-12-31T24:00:00+01:00,PMME064,Light scattering,2016,aerosol,0
Germany,Hildesheim Verkehr,DENI066,Traffic,Urban,PTAC045,Nitrogen oxides ,52.150775,9.950223,13.0,Continuous data collection,2019-01-14T23:00:01Z,Not Specified,PMME045,Chemiluminescence,2019,air,1
Germany,Freiburg Schwarzwaldstraße,DEBW122,Traffic,Urban,PTAC028,Lead in PM10 ,47.9882,7.85992,195.0,Continuous data collection,2007-03-01T23:00:01Z,2014-12-31T24:00:00+01:00,PMME028,Non-dispersive infrared spectroscopy (NDIR),2007,aerosol,0
Germany,"Potsdam, Groß Glienicke",DEBB075,Background,Suburban,PTAC049,Ozone ,52.484168000000004,13.123698000000001,190.0,Continuous data collection,2007-04-26T23:00:01Z,Not Specified,PMME056,Ultraviolet (UV) photometry,2007,air,1
Germany,Erfurt Krämpferstr.,DETH020,Background,Urban,PTAC028,Lead in PM10 ,50.979455,11.037924,210.0,Continuous data collection,2014-01-02T23:00:01Z,2018-12-31T24:00:00+01:00,PMME031,Beta ray attenuation,2014,aerosol,0
Germany,Lauenburg-Murjahnstraße,DESH058,Background,Urban,PTAC049,Ozone ,53.382338,10.540524000000001,207.0,Continuous data collection,2018-12-31T23:00:01Z,Not Specified,PMME056,Ultraviolet (UV) photometry,2018,air,1
Germany,Lünen Mühlenweg,DENW306,Industrial,Urban,PTAC007,Arsenic in PM10 ,51.61395,7.471006,610.0,Continuous data collection,2014-12-31T23:00:01Z,2015-03-31T24:00:00+01:00,PMME044,UV fluorescence,2014,aerosol,0
Germany,Schmücke,DEUB029,Background,Rural,PTAC039,Nickel in PM10 ,50.654066,10.769534,215.0,Continuous data collection,2003-12-31T23:00:01Z,Not Specified,PMME045,Chemiluminescence,2003,aerosol,0
Germany,Halle/Merseburger Strasse,DEST075,Traffic,Urban,PTAC007,Arsenic in PM10 ,51.475164,11.983406,210.0,Continuous data collection,2001-12-31T23:00:01Z,2010-04-24T24:00:00+01:00,PMME031,Beta ray attenuation,2001,aerosol,0
Germany,Eberswalde Breite Straße,DEBB060,Traffic,Urban,PTAC051,Particulate matter < 10 µm ,52.832467,13.822211,189.0,Continuous data collection,2012-12-31T23:00:01Z,2013-12-31T24:00:00+01:00,PMME024,Light absorption,2012,aerosol,0
Germany,Neuglobsow,DEUB030,Background,Rural-Regional,PTAC053,pentenes ,53.141303,13.031661999999999,16.0,Continuous data collection,2004-12-31T23:00:01Z,2013-12-31T24:00:00+01:00,PMME064,Light scattering,2004,air,1
Germany,Halle/Merseburger Strasse,DEST075,Traffic,Urban,PTAC028,Lead in PM10 ,51.475164,11.983406,75.0,Continuous data collection,2014-12-31T23:00:01Z,2016-12-31T24:00:00+01:00,PMME064,Light scattering,2014,aerosol,0
Germany,Schmücke,DEUB029,Background,Rural,PTAC038,n-Hexane ,50.654066,10.769534,211.0,Continuous data collection,1997-12-31T23:00:01Z,2013-12-31T24:00:00+01:00,PMME031,Beta ray attenuation,1997,air,1
Germany,Aachen-Burtscheid,DENW094,Background,Urban,PTAC052,Particulate matter < 2.5 µm ,50.754729,6.093826,594.0,Continuous data collection,2007-12-31T23:00:01Z,Not Specified,PMME045,Chemiluminescence,2007,aerosol,0
Germany,Dresden-Bergstr.,DESN084,Traffic,Urban,PTAC051,Particulate matter < 10 µm ,51.026294,13.731608,210.0,Continuous data collection,2004-12-31T23:00:01Z,Not Specified,PMME031,Beta ray attenuation,2004,aerosol,0
Germany,Duisburg Bergstraße 48,DENW254,Industrial,Urban,PTAC007,Arsenic in PM10 ,51.467894,6.752342,205.0,Continuous data collection,2007-12-31T23:00:01Z,2015-12-31T24:00:00+01:00,PMME031,Beta ray attenuation,2007,aerosol,0
Germany,Leipzig-West,DESN059,Background,Urban,PTAC045,Nitrogen oxides ,51.317904999999996,12.297411,75.0,Continuous data collection,1994-08-31T23:00:01Z,2012-12-31T24:00:00+01:00,PMME045,Chemiluminescence,1994,air,1
Germany,Nürnberg/Muggenhof,DEBY058,Background,Urban,PTAC043,Nitrogen dioxide ,49.462229,11.0248,12.0,Continuous data collection,2012-01-18T23:00:01Z,Not Specified,PMME045,Chemiluminescence,2012,air,1
Germany,Dortmund Steinstraße,DENW101,Traffic,Urban,PTAC044,Nitrogen monoxide ,51.5196,7.464249000000001,71.0,Continuous data collection,2011-12-31T23:00:01Z,Not Specified,PMME045,Chemiluminescence,2011,air,1
Germany,Remscheid Freiheitstraße,DENW166,Traffic,Urban,PTAC043,Nitrogen dioxide ,51.17804,7.18195,14.0,Periodic data collection,2004-07-28T23:00:01Z,Not Specified,PMME064,Light scattering,2004,air,1
Germany,Oldenburg Verkehr,DENI076,Traffic,Urban,PTAC052,Particulate matter < 2.5 µm ,53.15184,8.21754,600.0,Continuous data collection,2009-12-31T23:00:01Z,2013-01-06T24:00:00+01:00,PMME041,Nephelometry + BETA,2009,aerosol,0
Germany,Mühlhausen Wanfrieder Str,DETH091,Traffic,Urban,PTAC044,Nitrogen monoxide ,51.205226,10.448432,75.0,Continuous data collection,2011-01-18T23:00:01Z,Not Specified,PMME045,Chemiluminescence,2011,air,1
Germany,Wittenberg/Dessauer Strasse,DEST092,Traffic,Urban,PTAC009,Benzene ,51.867471,12.59827,15.0,Continuous data collection,1996-10-31T23:00:01Z,Not Specified,PMME004,Gas chromatography,1996,air,1
Germany,Berlin Leipziger Straße,DEBE082,Traffic,Urban,PTAC043,Nitrogen dioxide ,52.510402,13.391295999999999,553.0,Continuous data collection,2006-12-31T23:00:01Z,2017-12-31T24:00:00+01:00,PMME045,Chemiluminescence,2006,air,1
Germany,Braubach,DERP043,Industrial,Rural,PTAC051,Particulate matter < 10 µm ,50.275108,7.652114999999999,15.0,Continuous data collection,2010-12-31T23:00:01Z,Not Specified,PMME064,Light scattering,2010,aerosol,0
Germany,Kamp-Lintfort Eyller-Berg-Straße,DENW307,Industrial,Suburban,PTAC010,Cadmium in PM10 ,51.481842,6.527344,74.0,Continuous data collection,2015-12-31T23:00:01Z,2016-06-30T24:00:00+01:00,PMME064,Light scattering,2015,aerosol,0
Germany,Erfurt Walkmühlstr.,DETH099,Traffic,Urban,PTAC043,Nitrogen dioxide ,50.970955,11.022236,75.0,Continuous data collection,2015-01-05T23:00:01Z,2019-12-31T24:00:00+01:00,PMME064,Light scattering,2015,air,1
Germany,Bremerhaven-Cherbourger Straße,DEHB011,Traffic,Urban,PTAC043,Nitrogen dioxide ,53.585262,8.59876,570.0,Continuous data collection,2007-12-31T23:00:01Z,Not Specified,PMME045,Chemiluminescence,2007,air,1
Germany,Pfinztal Karlsruher Straße,DEBW125,Traffic,Suburban,PTAC028,Lead in PM10 ,49.00371,8.52628,195.0,Continuous data collection,2010-12-31T23:00:01Z,2015-12-31T24:00:00+01:00,PMME028,Non-dispersive infrared spectroscopy (NDIR),2010,aerosol,0
Germany,Konstanz,DEBW052,Background,Urban,PTAC043,Nitrogen dioxide ,47.664361,9.169289,195.0,Continuous data collection,1990-08-31T23:00:01Z,Not Specified,PMME045,Chemiluminescence,1990,air,1
Germany,Trier Kaiserstraße,DERP036,Traffic,Urban,PTAC043,Nitrogen dioxide ,49.750128000000004,6.636977000000001,603.0,Continuous data collection,2017-12-31T23:00:01Z,Not Specified,PMME044,UV fluorescence,2017,air,1
Germany,Ulm,DEBW019,Background,Urban,PTAC009,Benzene ,48.396836,9.979030999999999,195.0,Continuous data collection,2000-01-19T23:00:01Z,2016-12-31T24:00:00+01:00,PMME028,Non-dispersive infrared spectroscopy (NDIR),2000,air,1
Germany,Dortmund-Eving,DENW008,Background,Urban,PTAC052,Particulate matter < 2.5 µm ,51.536893,7.457408999999999,14.0,Continuous data collection,2011-12-31T23:00:01Z,2017-12-31T24:00:00+01:00,PMME041,Nephelometry + BETA,2011,aerosol,0
Germany,Cottbus,DEBB064,Background,Urban,PTAC032,magnesium in PM2.5 ,51.746848,14.334470000000001,545.0,Continuous data collection,2014-12-31T23:00:01Z,2015-12-31T24:00:00+01:00,PMME045,Chemiluminescence,2014,aerosol,0
Germany,Brunsbüttel-Cuxhavener Straße,DESH035,Background,Urban,PTAC039,Nickel in PM10 ,53.896117000000004,9.156908,15.0,Continuous data collection,2016-12-31T23:00:01Z,Not Specified,PMME064,Light scattering,2016,aerosol,0
Germany,Frankfurt Römerberg 27,DEHE141,Background,Urban,PTAC043,Nitrogen dioxide ,50.110455,8.682489,581.0,Continuous data collection,2017-12-31T23:00:01Z,Not Specified,PMME045,Chemiluminescence,2017,air,1
Germany,Berlin Frankfurter Allee,DEBE065,Traffic,Urban,PTAC045,Nitrogen oxides ,52.514072,13.469930999999999,552.0,Continuous data collection,1993-08-31T23:00:01Z,Not Specified,PMME045,Chemiluminescence,1993,air,1
Germany,Kleiner Feldberg,DEHE052,Background,Rural,PTAC033,Manganese in PM10 ,50.221940999999994,8.446079,68.0,Continuous data collection,2011-12-31T23:00:01Z,Not Specified,PMME064,Light scattering,2011,aerosol,0
Germany,Kelheim/Regensburger Straße,DEBY028,Traffic,Urban,PTAC052,Particulate matter < 2.5 µm ,48.909518,11.879245,196.0,Continuous data collection,2014-04-23T23:00:01Z,2014-12-31T24:00:00+01:00,PMME041,Nephelometry + BETA,2014,aerosol,0
Germany,Hamburg Sternschanze,DEHH008,Background,Urban,PTAC051,Particulate matter < 10 µm ,53.56414,9.967882000000001,583.0,Continuous data collection,2000-09-28T23:00:01Z,Not Specified,PMME031,Beta ray attenuation,2000,aerosol,0
Germany,Berlin Buch,DEBE051,Background,Suburban,PTAC052,Particulate matter < 2.5 µm ,52.64416899999999,13.483079,192.0,Continuous data collection,2010-12-31T23:00:01Z,2014-01-01T24:00:00+01:00,PMME024,Light absorption,2010,aerosol,0
Germany,Barbis-Verkehr,DENI071,Traffic,Suburban,PTAC039,Nickel in PM10 ,51.61365,10.42275,600.0,Continuous data collection,2008-08-31T23:00:01Z,2011-12-31T24:00:00+01:00,PMME045,Chemiluminescence,2008,aerosol,0
Germany,Aachen Wilhelmstraße,DENW207,Traffic,Urban,PTAC030,"m,p-Xylene ",50.773126,6.09576,609.0,Continuous data collection,2007-01-09T23:00:01Z,Not Specified,PMME044,UV fluorescence,2007,air,1
Germany,"Frankfurt (Oder), Leipziger Str.",DEBB045,Traffic,Urban,PTAC051,Particulate matter < 10 µm ,52.337336,14.538595,11.0,Continuous data collection,2016-12-31T23:00:01Z,2017-12-31T24:00:00+01:00,PMME064,Light scattering,2016,aerosol,0
Germany,"Brandenburg, Neuendorfer Str.",DEBB049,Traffic,Urban,PTAC060,sulphate in PM10 ,52.409309,12.548376,11.0,Continuous data collection,2009-12-31T23:00:01Z,2010-12-31T24:00:00+01:00,PMME064,Light scattering,2009,aerosol,0
Germany,Ratingen-Tiefenbroich,DENW078,Background,Suburban,PTAC051,Particulate matter < 10 µm ,51.303394,6.819887,14.0,Continuous data collection,2013-04-09T23:00:01Z,Not Specified,PMME031,Beta ray attenuation,2013,aerosol,0
Germany,Zingst,DEUB028,Background,Rural,PTAC055,potassium in PM2.5 ,54.436985,12.721938,16.0,Continuous data collection,2010-12-31T23:00:01Z,2013-12-31T24:00:00+01:00,PMME064,Light scattering,2010,aerosol,0
Germany,Freiberg,DESN017,Background,Urban,PTAC027,indeno_123cd_pyrene in PM10 ,50.9163,13.346826,74.0,Continuous data collection,1998-02-01T23:00:01Z,Not Specified,PMME064,Light scattering,1998,aerosol,0
Germany,Aachen-Burtscheid,DENW094,Background,Urban,PTAC044,Nitrogen monoxide ,50.754729,6.093826,202.0,Continuous data collection,2011-12-31T23:00:01Z,Not Specified,PMME045,Chemiluminescence,2011,air,1
Germany,Essen-Ost Steeler Straße,DENW043,Traffic,Urban,PTAC030,"m,p-Xylene ",51.451176000000004,7.030533999999999,13.0,Continuous data collection,2001-03-20T23:00:01Z,Not Specified,PMME064,Light scattering,2001,air,1
Germany,Potsdam-Zentrum,DEBB021,Background,Urban,PTAC051,Particulate matter < 10 µm ,52.401352,13.059944999999999,64.0,Continuous data collection,2013-12-31T23:00:01Z,2014-12-31T24:00:00+01:00,PMME064,Light scattering,2013,aerosol,0
Germany,Erfurt Krämpferstr.,DETH020,Background,Urban,PTAC028,Lead in PM10 ,50.979455,11.037924,630.0,Continuous data collection,2010-12-31T23:00:01Z,2011-12-31T24:00:00+01:00,PMME044,UV fluorescence,2010,aerosol,0
Germany,Güstrow,DEMV019,Background,Urban,PTAC007,Arsenic in PM10 ,53.78175,12.175512,580.0,Continuous data collection,2010-12-31T23:00:01Z,Not Specified,PMME045,Chemiluminescence,2010,aerosol,0
Germany,Allertal,DENI052,Background,Suburban,PTAC043,Nitrogen dioxide ,52.82943,9.62295,202.0,Continuous data collection,2009-12-31T23:00:01Z,Not Specified,PMME045,Chemiluminescence,2009,air,1
Germany,Halle/Paracelsusstr.,DEST102,Traffic,Urban,PTAC051,Particulate matter < 10 µm ,51.494756,11.981314,15.0,Continuous data collection,2009-10-19T23:00:01Z,2013-04-16T24:00:00+01:00,PMME041,Nephelometry + BETA,2009,aerosol,0
Germany,Baden-Baden,DEBW076,Background,Suburban,PTAC044,Nitrogen monoxide ,48.773072,8.220214,194.0,Continuous data collection,1993-03-31T23:00:01Z,Not Specified,PMME045,Chemiluminescence,1993,air,1
Germany,Hamburg Habichtstraße,DEHH068,Traffic,Urban,PTAC009,Benzene ,53.592301,10.053859,67.0,Continuous data collection,2001-12-31T23:00:01Z,2019-01-02T24:00:00+01:00,PMME004,Gas chromatography,2001,air,1
Germany,Greiz Mollbergstr.,DETH036,Background,Urban,PTAC049,Ozone ,50.655861,12.205199,630.0,Continuous data collection,1996-05-14T23:00:01Z,Not Specified,PMME056,Ultraviolet (UV) photometry,1996,air,1
Germany,Bremen-West,DEHB003,Background,Urban,PTAC049,Ozone ,53.111095999999996,8.755619,195.0,Continuous data collection,1989-12-31T23:00:01Z,2010-04-30T24:00:00+01:00,PMME056,Ultraviolet (UV) photometry,1989,air,1
Germany,Eisenhüttenstadt,DEBB032,Industrial,Suburban,PTAC012,calcium in PM10 ,52.146264,14.638166,63.0,Continuous data collection,2011-12-31T23:00:01Z,2012-12-31T24:00:00+01:00,PMME064,Light scattering,2011,aerosol,0
Germany,Hasenholz,DEBB053,Background,Rural-Regional,PTAC049,Ozone ,52.563835,14.015251999999998,65.0,Continuous data collection,2000-11-30T23:00:01Z,Not Specified,PMME056,Ultraviolet (UV) photometry,2000,air,1
Germany,Westpfalz-Waldmohr,DERP013,Background,Rural,PTAC062,Sulphur dioxide ,49.423116,7.293543,604.0,Continuous data collection,1983-12-31T23:00:01Z,Not Specified,PMME044,UV fluorescence,1983,air,1
Germany,Löcknitz,DEMV012,Background,Rural,PTAC051,Particulate matter < 10 µm ,53.520456,14.257407,580.0,Continuous data collection,2010-12-31T23:00:01Z,Not Specified,PMME064,Light scattering,2010,aerosol,0
Germany,Eberswalde Breite Straße,DEBB060,Traffic,Urban,PTAC051,Particulate matter < 10 µm ,52.832467,13.822211,65.0,Continuous data collection,2015-12-31T23:00:01Z,2016-12-31T24:00:00+01:00,PMME064,Light scattering,2015,aerosol,0
Germany,Bonn Reuterstraße,DENW175,Traffic,Urban,PTAC009,Benzene ,50.72258,7.09708,203.0,Continuous data collection,2005-12-31T23:00:01Z,Not Specified,PMME031,Beta ray attenuation,2005,air,1
Germany,Zarrentin,DEMV018,Background,Suburban,PTAC049,Ozone ,53.543687,10.929825,199.0,Continuous data collection,2000-12-31T23:00:01Z,2010-06-14T24:00:00+01:00,PMME056,Ultraviolet (UV) photometry,2000,air,1
Germany,Arzberg/Egerstraße,DEBY002,Background,Suburban,PTAC044,Nitrogen monoxide ,50.058195,12.18865,67.0,Continuous data collection,1981-01-31T23:00:01Z,2012-02-06T24:00:00+01:00,PMME045,Chemiluminescence,1981,air,1
Germany,Mainz-Zitadelle,DERP009,Background,Urban,PTAC043,Nitrogen dioxide ,49.995016,8.273978999999999,74.0,Continuous data collection,1977-12-31T23:00:01Z,Not Specified,PMME045,Chemiluminescence,1977,air,1
Germany,Westerland,DEUB001,Background,Rural,PTAC013,calcium in PM2.5 ,54.924967,8.308208,638.0,Continuous data collection,2010-12-31T23:00:01Z,2013-12-31T24:00:00+01:00,PMME056,Ultraviolet (UV) photometry,2010,aerosol,0
Germany,Frankenthal-Europaring,DERP026,Traffic,Urban,PTAC009,Benzene ,49.5333,8.3553,602.0,Continuous data collection,2012-01-03T23:00:01Z,Not Specified,PMME044,UV fluorescence,2012,air,1
Germany,Dresden-Nord,DESN061,Traffic,Urban,PTAC027,indeno_123cd_pyrene in PM10 ,51.06493,13.741397000000001,620.0,Continuous data collection,1998-02-02T23:00:01Z,Not Specified,PMME044,UV fluorescence,1998,aerosol,0
Germany,Magdeburg/Reuterallee,DEST099,Traffic,Urban,PTAC052,Particulate matter < 2.5 µm ,52.131198,11.631161,210.0,Continuous data collection,2007-01-04T23:00:01Z,2012-02-02T24:00:00+01:00,PMME031,Beta ray attenuation,2007,aerosol,0
Germany,Eggenstein,DEBW004,Background,Rural-Near_city,PTAC010,Cadmium in PM10 ,49.07655,8.40666,554.0,Continuous data collection,2000-01-03T23:00:01Z,2010-12-31T24:00:00+01:00,PMME045,Chemiluminescence,2000,aerosol,0
Germany,Oker/Harlingerode,DENI016,Background,Suburban,PTAC028,Lead in PM10 ,51.901579999999996,10.48132,200.0,Continuous data collection,2012-03-31T23:00:01Z,2014-12-31T24:00:00+01:00,PMME031,Beta ray attenuation,2012,aerosol,0
Germany,Hannover,DENI054,Background,Urban,PTAC049,Ozone ,52.36292,9.70612,70.0,Continuous data collection,2009-12-31T23:00:01Z,Not Specified,PMME056,Ultraviolet (UV) photometry,2009,air,1
Germany,Bielefeld Stapenhorststraße 59,DENW186,Traffic,Urban,PTAC044,Nitrogen monoxide ,52.026236,8.521576,14.0,Continuous data collection,2008-01-06T23:00:01Z,2011-12-31T24:00:00+01:00,PMME045,Chemiluminescence,2008,air,1
Germany,Mannheim-Süd,DEBW007,Background,Urban,PTAC044,Nitrogen monoxide ,49.431986,8.525819,11.0,Continuous data collection,1974-12-31T23:00:01Z,2010-12-31T24:00:00+01:00,PMME045,Chemiluminescence,1974,air,1
Germany,Trier Kaiserstraße,DERP036,Traffic,Urban,PTAC045,Nitrogen oxides ,49.750128000000004,6.636977000000001,74.0,Continuous data collection,2013-12-31T23:00:01Z,2014-01-21T24:00:00+01:00,PMME045,Chemiluminescence,2013,air,1
Germany,Berlin Marienfelde,DEBE027,Background,Rural-Near_city,PTAC045,Nitrogen oxides ,52.398406,13.368103,11.0,Continuous data collection,1989-03-31T23:00:01Z,Not Specified,PMME045,Chemiluminescence,1989,air,1
Germany,Darmstadt-Hügelstraße,DEHE040,Traffic,Urban,PTAC030,"m,p-Xylene ",49.869457000000004,8.653744999999999,69.0,Continuous data collection,1999-06-30T23:00:01Z,Not Specified,PMME004,Gas chromatography,1999,air,1
Germany,Schauinsland,DEUB004,Background,Rural-Regional,PTAC062,Sulphur dioxide ,47.913256,7.908035000000001,213.0,Continuous data collection,2012-03-13T23:00:01Z,Not Specified,PMME044,UV fluorescence,2012,air,1
Germany,"Potsdam, Groß Glienicke",DEBB075,Background,Suburban,PTAC052,Particulate matter < 2.5 µm ,52.484168000000004,13.123698000000001,65.0,Continuous data collection,2017-03-22T23:00:01Z,2017-12-31T24:00:00+01:00,PMME064,Light scattering,2017,aerosol,0
Germany,"Frankfurt (Oder), Leipziger Str.",DEBB045,Traffic,Urban,PTAC042,Nitrate in PM2.5 ,52.337336,14.538595,189.0,Continuous data collection,2012-12-31T23:00:01Z,2013-12-31T24:00:00+01:00,PMME024,Light absorption,2012,aerosol,0
Germany,Hamburg Veddel,DEHH015,Industrial,Urban,PTAC007,Arsenic in PM10 ,53.523262,10.021227,12.0,Continuous data collection,2017-12-31T23:00:01Z,Not Specified,PMME064,Light scattering,2017,aerosol,0
Germany,Barbis-Verkehr,DENI071,Traffic,Suburban,PTAC044,Nitrogen monoxide ,51.61365,10.42275,70.0,Continuous data collection,2009-12-31T23:00:01Z,2018-09-22T24:00:00+01:00,PMME045,Chemiluminescence,2009,air,1
Germany,Frankfurt-Friedb.Ldstr.,DEHE041,Traffic,Urban,PTAC063,Toluene ,50.124589,8.691911,12.0,Continuous data collection,1996-02-29T23:00:01Z,Not Specified,PMME004,Gas chromatography,1996,air,1
Germany,Königs Wusterhausen,DEBB082,Background,Suburban,PTAC052,Particulate matter < 2.5 µm ,52.294633000000005,13.619784,190.0,Continuous data collection,2012-12-31T23:00:01Z,2014-01-03T24:00:00+01:00,PMME064,Light scattering,2012,aerosol,0
Germany,Münster-Geist,DENW095,Background,Urban,PTAC044,Nitrogen monoxide ,51.936535,7.611583,14.0,Continuous data collection,2011-12-31T23:00:01Z,Not Specified,PMME045,Chemiluminescence,2011,air,1
Germany,"Bernau, Lohmühlenstr.",DEBB068,Traffic,Urban,PTAC028,Lead in PM10 ,52.677651000000004,13.582269,190.0,Continuous data collection,2019-12-31T23:00:01Z,Not Specified,PMME024,Light absorption,2019,aerosol,0
Germany,Bornhöved,DESH008,Background,Rural-Regional,PTAC045,Nitrogen oxides ,54.093230000000005,10.240596,73.0,Continuous data collection,1988-11-07T23:00:01Z,Not Specified,PMME045,Chemiluminescence,1988,air,1
Germany,Eisenhüttenstadt,DEBB032,Industrial,Suburban,PTAC059,sodium in PM2.5 ,52.146264,14.638166,187.0,Continuous data collection,2017-12-31T23:00:01Z,2018-12-31T24:00:00+01:00,PMME024,Light absorption,2017,aerosol,0
Germany,Schmücke,DEUB029,Background,Rural,PTAC018,cis-2-Butene ,50.654066,10.769534,16.0,Continuous data collection,1997-12-31T23:00:01Z,2013-12-31T24:00:00+01:00,PMME064,Light scattering,1997,air,1
Germany,Neuglobsow,DEUB030,Background,Rural-Regional,PTAC067,trans-2-Pentene ,53.141303,13.031661999999999,76.0,Continuous data collection,2004-12-31T23:00:01Z,2012-12-31T24:00:00+01:00,PMME024,Light absorption,2004,air,1
Germany,Linden/Leihgestern,DEHE042,Background,Rural,PTAC021,Copper in PM10 ,50.532965000000004,8.684397,577.0,Continuous data collection,2011-12-31T23:00:01Z,Not Specified,PMME045,Chemiluminescence,2011,aerosol,0
Germany,Ludwigshafen-Heinigstraße,DERP041,Traffic,Urban,PTAC015,Carbon monoxide ,49.478497999999995,8.44385,209.0,Continuous data collection,2000-10-31T23:00:01Z,Not Specified,PMME053,Infrared gas filter correlation,2000,air,1
Germany,Berlin Frohnau (3.5 m),DEBE062,Background,Rural-Near_city,PTAC045,Nitrogen oxides ,52.653268999999995,13.296081,11.0,Continuous data collection,1996-01-31T23:00:01Z,Not Specified,PMME045,Chemiluminescence,1996,air,1
Germany,Kelheim/Regensburger Straße,DEBY028,Traffic,Urban,PTAC043,Nitrogen dioxide ,48.909518,11.879245,12.0,Continuous data collection,2012-01-24T23:00:01Z,Not Specified,PMME045,Chemiluminescence,2012,air,1
Germany,Itzehoe Lindenstr.,DESH025,Traffic,Urban,PTAC045,Nitrogen oxides ,53.928028000000005,9.511769000000001,14.0,Continuous data collection,2001-12-10T23:00:01Z,Not Specified,PMME045,Chemiluminescence,2001,air,1
Germany,Pfullendorf,DEBW110,Background,Suburban,PTAC043,Nitrogen dioxide ,47.932361,9.237111,65.0,Continuous data collection,2004-11-30T23:00:01Z,2010-12-31T24:00:00+01:00,PMME045,Chemiluminescence,2004,air,1
Germany,Netphen Rothaargebirge,DENW065,Background,Rural-Regional,PTAC044,Nitrogen monoxide ,50.930329,8.191907,201.0,Continuous data collection,1986-01-31T23:00:01Z,2011-12-31T24:00:00+01:00,PMME045,Chemiluminescence,1986,air,1
Germany,Waldhof,DEUB005,Background,Rural,PTAC063,Toluene ,52.800773,10.756733,214.0,Continuous data collection,2015-12-31T23:00:01Z,Not Specified,PMME031,Beta ray attenuation,2015,air,1
Germany,Hamburg Billwerder II,DEHH075,Traffic,Rural-Near_city,PTAC051,Particulate matter < 10 µm ,53.518764000000004,10.122063,199.0,Continuous data collection,2006-12-13T23:00:01Z,2010-05-10T24:00:00+01:00,PMME019,Tapered Element Oscillating Microbalance (TEOM),2006,aerosol,0
Germany,Heppenheim-Lehrstraße,DEHE063,Traffic,Urban,PTAC030,"m,p-Xylene ",49.643238000000004,8.642000000000001,570.0,Continuous data collection,2006-01-11T23:00:01Z,2010-12-31T24:00:00+01:00,PMME004,Gas chromatography,2006,air,1
Germany,Waldhof,DEUB005,Background,Rural,PTAC013,calcium in PM2.5 ,52.800773,10.756733,214.0,Continuous data collection,2011-12-31T23:00:01Z,2013-12-31T24:00:00+01:00,PMME045,Chemiluminescence,2011,aerosol,0
Germany,Witzenhausen/Wald,DEHE024,Background,Rural,PTAC049,Ozone ,51.291757000000004,9.774588,575.0,Continuous data collection,1983-06-30T23:00:01Z,Not Specified,PMME056,Ultraviolet (UV) photometry,1983,air,1
Germany,Göhlen,DEMV017,Background,Rural,PTAC051,Particulate matter < 10 µm ,53.302352,11.362964999999999,199.0,Continuous data collection,2012-12-31T23:00:01Z,Not Specified,PMME064,Light scattering,2012,aerosol,0
Germany,Frankfurt-Ost,DEHE008,Background,Urban,PTAC039,Nickel in PM10 ,50.125332,8.746343,65.0,Continuous data collection,2001-12-31T23:00:01Z,Not Specified,PMME064,Light scattering,2001,aerosol,0
Germany,München/Landshuter Allee,DEBY115,Traffic,Urban,PTAC028,Lead in PM10 ,48.149606,11.536513000000001,67.0,Continuous data collection,2007-12-31T23:00:01Z,Not Specified,PMME064,Light scattering,2007,aerosol,0
Germany,Pfullendorf,DEBW110,Background,Suburban,PTAC044,Nitrogen monoxide ,47.932361,9.237111,195.0,Continuous data collection,2004-11-30T23:00:01Z,2010-12-31T24:00:00+01:00,PMME045,Chemiluminescence,2004,air,1
Germany,Grevenbroich-Gustorf,DENW180,Industrial,Suburban,PTAC045,Nitrogen oxides ,51.06377,6.559446,203.0,Continuous data collection,2005-11-28T23:00:01Z,2013-01-02T24:00:00+01:00,PMME045,Chemiluminescence,2005,air,1
Germany,Südoldenburg,DENI053,Industrial,Suburban,PTAC010,Cadmium in PM10 ,52.99796,7.94257,203.0,Continuous data collection,2007-12-31T23:00:01Z,2012-02-29T24:00:00+01:00,PMME031,Beta ray attenuation,2007,aerosol,0
Germany,Linden/Leihgestern,DEHE042,Background,Rural,PTAC014,Carbon dioxide ,50.532965000000004,8.684397,12.0,Continuous data collection,1995-08-31T23:00:01Z,Not Specified,PMME053,Infrared gas filter correlation,1995,air,1
Germany,Pfinztal Karlsruher Straße,DEBW125,Traffic,Suburban,PTAC015,Carbon monoxide ,49.00371,8.52628,65.0,Continuous data collection,2014-12-31T23:00:01Z,Not Specified,PMME053,Infrared gas filter correlation,2014,air,1
Germany,Hameln-Verkehr,DENI074,Traffic,Urban,PTAC063,Toluene ,52.104039,9.367038,70.0,Continuous data collection,2013-12-31T23:00:01Z,Not Specified,PMME064,Light scattering,2013,air,1
Germany,"Premnitz, OT Döberitz",DEBB088,Industrial,Suburban,PTAC051,Particulate matter < 10 µm ,52.52401,12.370161999999999,190.0,Continuous data collection,2013-12-31T23:00:01Z,2014-09-03T24:00:00+01:00,PMME024,Light absorption,2013,aerosol,0
Germany,Inden-Schophoven,DENW300,Industrial,Rural,PTAC010,Cadmium in PM10 ,50.877278000000004,6.397575,72.0,Continuous data collection,2010-12-31T23:00:01Z,2011-12-31T24:00:00+01:00,PMME064,Light scattering,2010,aerosol,0
Germany,Hamburg Wilhelmsburg,DEHH059,Background,Urban,PTAC007,Arsenic in PM10 ,53.50793,9.990569,12.5,Continuous data collection,2015-12-31T23:00:01Z,Not Specified,PMME064,Light scattering,2015,aerosol,0
Germany,Halle/Riebeckplatz,DEST133,Traffic,Urban,PTAC051,Particulate matter < 10 µm ,51.475778000000005,11.98385,210.0,Continuous data collection,2019-12-31T23:00:01Z,Not Specified,PMME031,Beta ray attenuation,2019,aerosol,0
Germany,Koblenz-Friedrich-Ebert-Ring,DERP024,Traffic,Urban,PTAC043,Nitrogen dioxide ,50.354403000000005,7.596633,15.0,Continuous data collection,2014-12-31T23:00:01Z,Not Specified,PMME064,Light scattering,2014,air,1
Germany,Kempten (Allgäu)/Westendstraße,DEBY031,Background,Suburban,PTAC051,Particulate matter < 10 µm ,47.72514,10.306561,66.0,Continuous data collection,2000-01-31T23:00:01Z,2014-12-08T24:00:00+01:00,PMME031,Beta ray attenuation,2000,aerosol,0
Germany,Augsburg/Königsplatz,DEBY006,Traffic,Urban,PTAC009,Benzene ,48.364589,10.895029,193.0,Continuous data collection,1998-03-03T23:00:01Z,2018-12-31T24:00:00+01:00,PMME004,Gas chromatography,1998,air,1
Germany,Bonn-Auerberg,DENW062,Background,Suburban,PTAC043,Nitrogen dioxide ,50.753629,7.082648,69.0,Continuous data collection,2011-12-31T23:00:01Z,Not Specified,PMME045,Chemiluminescence,2011,air,1
Germany,Warstein,DENW181,Industrial,Urban,PTAC052,Particulate matter < 2.5 µm ,51.442993,8.360797,204.0,Continuous data collection,2010-03-31T23:00:01Z,2011-12-31T24:00:00+01:00,PMME041,Nephelometry + BETA,2010,aerosol,0
Germany,Kamp-Lintfort Eyller-Berg-Straße,DENW307,Industrial,Suburban,PTAC039,Nickel in PM10 ,51.481842,6.527344,15.0,Continuous data collection,2015-12-31T23:00:01Z,2016-06-30T24:00:00+01:00,PMME064,Light scattering,2015,aerosol,0
Germany,Gießen-Westanlage,DEHE061,Traffic,Urban,PTAC045,Nitrogen oxides ,50.584108,8.668579,570.0,Continuous data collection,2010-12-31T23:00:01Z,Not Specified,PMME045,Chemiluminescence,2010,air,1
Germany,Schauinsland,DEUB004,Background,Rural-Regional,PTAC003,1-Butene ,47.913256,7.908035000000001,15.0,Continuous data collection,2004-06-30T23:00:01Z,2013-12-31T24:00:00+01:00,PMME064,Light scattering,2004,air,1
Germany,Schwerte Hörder Straße 13,DENW365,Traffic,Urban,PTAC043,Nitrogen dioxide ,51.44668,7.56352,203.0,Continuous data collection,2014-12-31T23:00:01Z,Not Specified,PMME031,Beta ray attenuation,2014,air,1
Germany,Dillingen City,DESL003,Industrial,Urban,PTAC063,Toluene ,49.357861,6.73354,15.0,Continuous data collection,2003-02-28T23:00:01Z,Not Specified,PMME064,Light scattering,2003,air,1
Germany,Hummelshain,DETH061,Background,Rural-Remote,PTAC039,Nickel in PM10 ,50.791616,11.661233,625.0,Continuous data collection,2018-12-31T23:00:01Z,Not Specified,PMME044,UV fluorescence,2018,aerosol,0
Germany,Waldhof,DEUB005,Background,Rural,PTAC052,Particulate matter < 2.5 µm ,52.800773,10.756733,214.0,Continuous data collection,2010-12-31T23:00:01Z,Not Specified,PMME031,Beta ray attenuation,2010,aerosol,0
Germany,Stolberg Heinrich-Böll-Platz,DENW245,Industrial,Urban,PTAC039,Nickel in PM10 ,50.764819,6.2325919999999995,72.0,Continuous data collection,2007-12-31T23:00:01Z,2016-12-31T24:00:00+01:00,PMME064,Light scattering,2007,aerosol,0
Germany,Witzenhausen/Wald,DEHE024,Background,Rural,PTAC004,Ammonia ,51.291757000000004,9.774588,12.0,Continuous data collection,2009-10-20T23:00:01Z,2013-05-22T24:00:00+01:00,PMME045,Chemiluminescence,2009,air,1
Germany,Mülheim-Styrum,DENW038,Background,Urban,PTAC028,Lead in PM10 ,51.453459,6.86505,585.0,Continuous data collection,2009-12-31T23:00:01Z,Not Specified,PMME045,Chemiluminescence,2009,aerosol,0
Germany,Bremerhaven-Hansastraße,DEHB005,Background,Urban,PTAC028,Lead in PM10 ,53.56245500000001,8.569405,65.0,Continuous data collection,2014-12-31T23:00:01Z,2016-12-31T24:00:00+01:00,PMME064,Light scattering,2014,aerosol,0
Germany,Warstein,DENW181,Industrial,Urban,PTAC044,Nitrogen monoxide ,51.442993,8.360797,614.0,Continuous data collection,2005-12-21T23:00:01Z,2011-12-31T24:00:00+01:00,PMME045,Chemiluminescence,2005,air,1
Germany,Soest-Ost,DENW068,Background,Rural-Near_city,PTAC039,Nickel in PM10 ,51.570675,8.148023,590.0,Continuous data collection,2019-12-31T23:00:01Z,Not Specified,PMME045,Chemiluminescence,2019,aerosol,0
Germany,Blankenfelde-Mahlow,DEBB086,Background,Suburban,PTAC044,Nitrogen monoxide ,52.349703000000005,13.424304000000001,11.0,Continuous data collection,2010-05-31T23:00:01Z,Not Specified,PMME045,Chemiluminescence,2010,air,1
Germany,Biberach,DEBW046,Background,Suburban,PTAC043,Nitrogen dioxide ,48.089886,9.800325,12.0,Continuous data collection,1990-10-31T23:00:01Z,Not Specified,PMME045,Chemiluminescence,1990,air,1
Germany,Sömmerda Wielandstr.,DETH096,Background,Suburban,PTAC051,Particulate matter < 10 µm ,51.168082,11.120727,75.0,Continuous data collection,2010-07-07T23:00:01Z,2013-12-19T24:00:00+01:00,PMME031,Beta ray attenuation,2010,aerosol,0
Germany,Burg Herzberg (Grebenau),DEHE039,Background,Rural,PTAC049,Ozone ,50.770381,9.459402,12.0,Continuous data collection,2010-09-06T23:00:01Z,Not Specified,PMME056,Ultraviolet (UV) photometry,2010,air,1
Germany,Mainz-Zitadelle,DERP009,Background,Urban,PTAC045,Nitrogen oxides ,49.995016,8.273978999999999,209.0,Continuous data collection,1977-12-31T23:00:01Z,Not Specified,PMME045,Chemiluminescence,1977,air,1
Germany,"Cottbus, W.-Külz-Str.",DEBB087,Traffic,Urban,PTAC043,Nitrogen dioxide ,51.754129999999996,14.325548999999999,550.0,Continuous data collection,2010-12-16T23:00:01Z,2016-12-31T24:00:00+01:00,PMME045,Chemiluminescence,2010,air,1
Germany,Oker/Harlingerode,DENI016,Background,Suburban,PTAC010,Cadmium in PM10 ,51.901579999999996,10.48132,581.0,Continuous data collection,2017-12-31T23:00:01Z,Not Specified,PMME045,Chemiluminescence,2017,aerosol,0
Germany,Naila/Selbitzer Berg,DEBY047,Background,Rural-Near_city,PTAC045,Nitrogen oxides ,50.323245,11.721605,66.0,Continuous data collection,1997-05-14T23:00:01Z,2012-02-06T24:00:00+01:00,PMME045,Chemiluminescence,1997,air,1
Germany,Gelsenkirchen Grothusstraße,DENW351,Traffic,Urban,PTAC043,Nitrogen dioxide ,51.52428,7.06035,74.0,Continuous data collection,2012-12-31T23:00:01Z,Not Specified,PMME064,Light scattering,2012,air,1
Germany,Eisenhüttenstadt,DEBB032,Industrial,Suburban,PTAC007,Arsenic in PM10 ,52.146264,14.638166,538.0,Continuous data collection,2011-12-31T23:00:01Z,2012-12-31T24:00:00+01:00,PMME045,Chemiluminescence,2011,aerosol,0
Germany,Halle/Riebeckplatz,DEST133,Traffic,Urban,PTAC051,Particulate matter < 10 µm ,51.475778000000005,11.98385,75.0,Continuous data collection,2019-05-31T23:00:01Z,2019-12-31T24:00:00+01:00,PMME041,Nephelometry + BETA,2019,aerosol,0
Germany,Salzgitter-Drütte,DENI070,Industrial,Rural,PTAC028,Lead in PM10 ,52.153690000000005,10.455910000000001,13.0,Continuous data collection,2011-12-31T23:00:01Z,2014-12-31T24:00:00+01:00,PMME064,Light scattering,2011,aerosol,0
Germany,"Cottbus, Bahnhofstr.",DEBB044,Traffic,Urban,PTAC025,Ethyl benzene ,51.756593,14.327998000000001,11.0,Continuous data collection,2016-12-31T23:00:01Z,Not Specified,PMME064,Light scattering,2016,air,1
Germany,Leipzig-Mitte,DESN025,Traffic,Urban,PTAC051,Particulate matter < 10 µm ,51.344164,12.377163000000001,623.0,Continuous data collection,2009-01-31T23:00:01Z,Not Specified,PMME044,UV fluorescence,2009,aerosol,0
Germany,Ratzeburg,DESH028,Traffic,Urban,PTAC043,Nitrogen dioxide ,53.698939,10.775796000000001,616.0,Periodic data collection,2004-12-31T23:00:01Z,2017-03-01T24:00:00+01:00,PMME045,Chemiluminescence,2004,air,1
Germany,Schwerte,DENW179,Background,Urban,PTAC043,Nitrogen dioxide ,51.448797,7.582247,71.0,Continuous data collection,2005-11-02T23:00:01Z,2011-12-31T24:00:00+01:00,PMME045,Chemiluminescence,2005,air,1
Germany,Herzfelde (Rüdersdorf),DEBB081,Industrial,Rural-Near_city,PTAC010,Cadmium in PM10 ,52.497549,13.849006,550.0,Continuous data collection,2008-01-04T23:00:01Z,2010-06-01T24:00:00+01:00,PMME045,Chemiluminescence,2008,aerosol,0
Germany,Burg,DEST002,Background,Suburban,PTAC051,Particulate matter < 10 µm ,52.268353999999995,11.864763,15.0,Continuous data collection,2005-12-31T23:00:01Z,2012-12-12T24:00:00+01:00,PMME031,Beta ray attenuation,2005,aerosol,0
Germany,Spremberg,DEBB083,Background,Suburban,PTAC045,Nitrogen oxides ,51.5645,14.3764,65.0,Continuous data collection,2009-05-05T23:00:01Z,Not Specified,PMME045,Chemiluminescence,2009,air,1
Germany,Dresden-Nord,DESN061,Traffic,Urban,PTAC052,Particulate matter < 2.5 µm ,51.06493,13.741397000000001,619.0,Continuous data collection,2009-12-31T23:00:01Z,Not Specified,PMME044,UV fluorescence,2009,aerosol,0
Germany,Pfinztal Karlsruher Straße,DEBW125,Traffic,Suburban,PTAC051,Particulate matter < 10 µm ,49.00371,8.52628,65.0,Continuous data collection,2005-12-31T23:00:01Z,Not Specified,PMME064,Light scattering,2005,aerosol,0
Germany,Linden/Leihgestern,DEHE042,Background,Rural,PTAC045,Nitrogen oxides ,50.532965000000004,8.684397,198.0,Continuous data collection,2010-12-31T23:00:01Z,Not Specified,PMME045,Chemiluminescence,2010,air,1
Germany,Darmstadt,DEHE001,Background,Urban,PTAC039,Nickel in PM10 ,49.872303,8.664619,195.0,Continuous data collection,2001-12-31T23:00:01Z,Not Specified,PMME028,Non-dispersive infrared spectroscopy (NDIR),2001,aerosol,0
Germany,Neuglobsow,DEUB030,Background,Rural-Regional,PTAC032,magnesium in PM2.5 ,53.141303,13.031661999999999,650.0,Continuous data collection,2013-12-31T23:00:01Z,Not Specified,PMME056,Ultraviolet (UV) photometry,2013,aerosol,0
Germany,Odenwald,DEBW103,Background,Rural,PTAC051,Particulate matter < 10 µm ,49.4645,8.754019,12.0,Continuous data collection,1999-06-30T23:00:01Z,2010-12-31T24:00:00+01:00,PMME064,Light scattering,1999,aerosol,0
Germany,Altenburg Theaterplatz,DETH011,Background,Urban,PTAC051,Particulate matter < 10 µm ,50.987758,12.437621,15.0,Continuous data collection,2019-06-24T23:00:01Z,Not Specified,PMME064,Light scattering,2019,aerosol,0
Germany,Darmstadt,DEHE001,Background,Urban,PTAC051,Particulate matter < 10 µm ,49.872303,8.664619,12.0,Continuous data collection,2011-12-13T23:00:01Z,Not Specified,PMME041,Nephelometry + BETA,2011,aerosol,0
Germany,Saarbrücken-Verkehr,DESL020,Traffic,Urban,PTAC051,Particulate matter < 10 µm ,49.230740000000004,7.0031740000000005,208.0,Continuous data collection,2004-09-30T23:00:01Z,Not Specified,PMME031,Beta ray attenuation,2004,aerosol,0
Germany,Neuwied-Hafenstraße,DERP021,Background,Urban,PTAC044,Nitrogen monoxide ,50.424685,7.481378,208.0,Continuous data collection,1987-12-31T23:00:01Z,Not Specified,PMME045,Chemiluminescence,1987,air,1
Germany,Hamburg Altona Elbhang,DEHH079,Background,Urban,PTAC043,Nitrogen dioxide ,53.545269,9.944815,199.0,Continuous data collection,2011-12-07T23:00:01Z,Not Specified,PMME045,Chemiluminescence,2011,air,1
Germany,Trostberg/Schwimmbadstraße,DEBY088,Background,Suburban,PTAC049,Ozone ,48.021657,12.538174,66.0,Continuous data collection,1992-04-30T23:00:01Z,Not Specified,PMME056,Ultraviolet (UV) photometry,1992,air,1
Germany,Blankenfelde-Mahlow,DEBB086,Background,Suburban,PTAC025,Ethyl benzene ,52.349703000000005,13.424304000000001,190.0,Continuous data collection,2012-12-31T23:00:01Z,Not Specified,PMME024,Light absorption,2012,air,1
Germany,Friedrichshafen,DEBW038,Background,Urban,PTAC051,Particulate matter < 10 µm ,47.660056,9.485675,558.0,Continuous data collection,2003-08-05T23:00:01Z,Not Specified,PMME064,Light scattering,2003,aerosol,0
Germany,Barbis-Verkehr,DENI071,Traffic,Suburban,PTAC063,Toluene ,51.61365,10.42275,581.0,Continuous data collection,2013-12-31T23:00:01Z,Not Specified,PMME045,Chemiluminescence,2013,air,1
Germany,Neuglobsow,DEUB030,Background,Rural-Regional,PTAC037,n-Heptane ,53.141303,13.031661999999999,212.0,Continuous data collection,2004-12-31T23:00:01Z,2013-12-31T24:00:00+01:00,PMME031,Beta ray attenuation,2004,air,1
Germany,Borna,DESN006,Traffic,Urban,PTAC045,Nitrogen oxides ,51.125,12.493056,209.0,Continuous data collection,1994-08-31T23:00:01Z,2012-12-31T24:00:00+01:00,PMME045,Chemiluminescence,1994,air,1
Germany,Garmisch-Partenkirchen/Kreuzeckbahnstraße,DEBY081,Background,Rural-Near_city,PTAC049,Ozone ,47.476392,11.063067,12.0,Continuous data collection,1994-10-31T23:00:01Z,2011-12-31T24:00:00+01:00,PMME056,Ultraviolet (UV) photometry,1994,air,1
Germany,Wiesbaden-Ringkirche,DEHE037,Traffic,Urban,PTAC021,Copper in PM10 ,50.077191,8.230316,576.0,Continuous data collection,2011-12-31T23:00:01Z,Not Specified,PMME045,Chemiluminescence,2011,aerosol,0
Germany,Oker/Harlingerode,DENI016,Background,Suburban,PTAC052,Particulate matter < 2.5 µm ,51.901579999999996,10.48132,200.0,Continuous data collection,2017-04-11T23:00:01Z,Not Specified,PMME041,Nephelometry + BETA,2017,aerosol,0
Germany,Grevenbroich-Gustorf,DENW180,Industrial,Suburban,PTAC044,Nitrogen monoxide ,51.06377,6.559446,14.0,Continuous data collection,2011-12-31T23:00:01Z,2013-01-02T24:00:00+01:00,PMME045,Chemiluminescence,2011,air,1
Germany,Waldhof,DEUB005,Background,Rural,PTAC042,Nitrate in PM2.5 ,52.800773,10.756733,76.0,Continuous data collection,2013-12-31T23:00:01Z,Not Specified,PMME024,Light absorption,2013,aerosol,0
Germany,"Frankfurt (Oder), Leipziger Str.",DEBB045,Traffic,Urban,PTAC051,Particulate matter < 10 µm ,52.337336,14.538595,187.0,Continuous data collection,2014-12-31T23:00:01Z,2016-12-31T24:00:00+01:00,PMME024,Light absorption,2014,aerosol,0
Germany,Duisburg Meiderich Bahnhofstraße,DENW377,Traffic,Urban,PTAC043,Nitrogen dioxide ,51.46675,6.781308999999999,15.0,Continuous data collection,2016-12-31T23:00:01Z,Not Specified,PMME064,Light scattering,2016,air,1
Germany,Dinslaken Hans-Böckler-Straße 9,DENW262,Traffic,Urban,PTAC043,Nitrogen dioxide ,51.56227,6.741860000000001,15.0,Continuous data collection,2009-12-31T23:00:01Z,2018-12-20T24:00:00+01:00,PMME064,Light scattering,2009,air,1
Germany,Düsseldorf Corneliusstraße,DENW082,Traffic,Urban,PTAC051,Particulate matter < 10 µm ,51.213165999999994,6.782538000000001,72.0,Continuous data collection,2011-12-31T23:00:01Z,2012-06-24T24:00:00+01:00,PMME019,Tapered Element Oscillating Microbalance (TEOM),2011,aerosol,0
Germany,Trier-Ostallee,DERP020,Traffic,Urban,PTAC044,Nitrogen monoxide ,49.754231,6.646717999999999,602.0,Continuous data collection,1985-12-31T23:00:01Z,Not Specified,PMME045,Chemiluminescence,1985,air,1
Germany,Düsseldorf Corneliusstraße,DENW082,Traffic,Urban,PTAC044,Nitrogen monoxide ,51.213165999999994,6.782538000000001,594.0,Continuous data collection,1997-03-12T23:00:01Z,2011-12-31T24:00:00+01:00,PMME045,Chemiluminescence,1997,air,1
Germany,Bielefeld Stapenhorststraße 42,DENW228,Traffic,Urban,PTAC043,Nitrogen dioxide ,52.02595,8.52229,610.0,Continuous data collection,2007-11-20T23:00:01Z,Not Specified,PMME044,UV fluorescence,2007,air,1
Germany,Trier Kaiserstraße,DERP036,Traffic,Urban,PTAC043,Nitrogen dioxide ,49.750128000000004,6.636977000000001,209.0,Continuous data collection,2013-12-31T23:00:01Z,2014-01-21T24:00:00+01:00,PMME045,Chemiluminescence,2013,air,1
Germany,Osnabrück-Verkehr,DENI067,Traffic,Urban,PTAC063,Toluene ,52.2703,8.04147,13.0,Continuous data collection,2013-12-31T23:00:01Z,Not Specified,PMME064,Light scattering,2013,air,1
Germany,Westerland,DEUB001,Background,Rural,PTAC062,Sulphur dioxide ,54.924967,8.308208,75.0,Continuous data collection,2008-01-31T23:00:01Z,2013-03-24T24:00:00+01:00,PMME044,UV fluorescence,2008,air,1
Germany,Lübeck-St. Jürgen,DESH023,Background,Urban,PTAC045,Nitrogen oxides ,53.835492,10.695936,73.0,Continuous data collection,2001-05-16T23:00:01Z,Not Specified,PMME045,Chemiluminescence,2001,air,1
Germany,Ludwigsburg Friedrichstraße,DEBW117,Traffic,Urban,PTAC051,Particulate matter < 10 µm ,48.8892,9.19003,195.0,Continuous data collection,2004-01-02T23:00:01Z,Not Specified,PMME028,Non-dispersive infrared spectroscopy (NDIR),2004,aerosol,0
Germany,Burg,DEST002,Background,Suburban,PTAC010,Cadmium in PM10 ,52.268353999999995,11.864763,15.0,Continuous data collection,2013-12-31T23:00:01Z,2014-12-31T24:00:00+01:00,PMME064,Light scattering,2013,aerosol,0
Germany,Münster Weseler Straße,DENW260,Traffic,Urban,PTAC063,Toluene ,51.953278000000005,7.619377,15.0,Continuous data collection,2011-02-09T23:00:01Z,Not Specified,PMME064,Light scattering,2011,air,1
Germany,"Frankfurt (Oder), Leipziger Str.",DEBB045,Traffic,Urban,PTAC030,"m,p-Xylene ",52.337336,14.538595,536.0,Continuous data collection,2019-12-31T23:00:01Z,Not Specified,PMME045,Chemiluminescence,2019,air,1
Germany,Schauinsland,DEUB004,Background,Rural-Regional,PTAC061,sulphate in PM2.5 ,47.913256,7.908035000000001,75.0,Continuous data collection,2013-12-31T23:00:01Z,Not Specified,PMME064,Light scattering,2013,aerosol,0
Germany,Magdeburg/Damaschkeplatz,DEST076,Traffic,Urban,PTAC045,Nitrogen oxides ,52.132017,11.623372999999999,210.0,Continuous data collection,1994-07-07T23:00:01Z,2014-12-31T24:00:00+01:00,PMME045,Chemiluminescence,1994,air,1
Germany,Luckenwalde,DEBB109,Background,Urban,PTAC007,Arsenic in PM10 ,52.089678,13.174949,190.0,Continuous data collection,2019-12-31T23:00:01Z,Not Specified,PMME024,Light absorption,2019,aerosol,0
Germany,Kleiner Feldberg,DEHE052,Background,Rural,PTAC051,Particulate matter < 10 µm ,50.221940999999994,8.446079,200.0,Continuous data collection,2000-12-31T23:00:01Z,Not Specified,PMME031,Beta ray attenuation,2000,aerosol,0
Germany,Wiesbaden-Schiersteiner Str.,DEHE112,Traffic,Urban,PTAC051,Particulate matter < 10 µm ,50.072119,8.228864999999999,200.0,Continuous data collection,2011-12-31T23:00:01Z,2018-04-11T24:00:00+01:00,PMME041,Nephelometry + BETA,2011,aerosol,0
Germany,Offenbach-Untere Grenzstraße,DEHE116,Traffic,Urban,PTAC015,Carbon monoxide ,50.101494,8.784892,12.0,Continuous data collection,2013-10-31T23:00:01Z,Not Specified,PMME053,Infrared gas filter correlation,2013,air,1
Germany,"Herzfelde, Hauptstr.",DEBB099,Traffic,Suburban,PTAC015,Carbon monoxide ,52.48188199999999,13.84825,557.0,Continuous data collection,2015-01-22T23:00:01Z,2019-01-03T24:00:00+01:00,PMME053,Infrared gas filter correlation,2015,air,1
Germany,Linden/Leihgestern,DEHE042,Background,Rural,PTAC062,Sulphur dioxide ,50.532965000000004,8.684397,577.0,Continuous data collection,1995-04-30T23:00:01Z,Not Specified,PMME044,UV fluorescence,1995,air,1
Germany,Schauinsland,DEUB004,Background,Rural-Regional,PTAC033,Manganese in PM10 ,47.913256,7.908035000000001,640.0,Continuous data collection,2003-12-31T23:00:01Z,2010-12-31T24:00:00+01:00,PMME056,Ultraviolet (UV) photometry,2003,aerosol,0
Germany,Vogelsang (Brieskow.-F),DEBB084,Industrial,Suburban,PTAC051,Particulate matter < 10 µm ,52.179559999999995,14.667088,12.0,Continuous data collection,2009-08-31T23:00:01Z,2011-04-04T24:00:00+01:00,PMME064,Light scattering,2009,aerosol,0
Germany,Gießen-Westanlage,DEHE061,Traffic,Urban,PTAC043,Nitrogen dioxide ,50.584108,8.668579,570.0,Continuous data collection,2005-12-11T23:00:01Z,Not Specified,PMME045,Chemiluminescence,2005,air,1
Germany,Duisburg-Walsum,DENW034,Industrial,Urban,PTAC039,Nickel in PM10 ,51.524029999999996,6.748363,584.0,Continuous data collection,2003-09-09T23:00:01Z,Not Specified,PMME045,Chemiluminescence,2003,aerosol,0
Germany,Worms-Hagenstraße,DERP023,Traffic,Urban,PTAC051,Particulate matter < 10 µm ,49.6287,8.3649,15.0,Continuous data collection,2006-01-05T23:00:01Z,Not Specified,PMME064,Light scattering,2006,aerosol,0
Germany,Ludwigshafen-Mitte,DERP002,Background,Urban,PTAC062,Sulphur dioxide ,49.482316,8.438589,74.0,Continuous data collection,2013-12-31T23:00:01Z,2014-01-15T24:00:00+01:00,PMME044,UV fluorescence,2013,air,1
Germany,Netphen Rothaargebirge,DENW065,Background,Rural-Regional,PTAC051,Particulate matter < 10 µm ,50.930329,8.191907,69.0,Continuous data collection,2003-07-20T23:00:01Z,2011-12-31T24:00:00+01:00,PMME041,Nephelometry + BETA,2003,aerosol,0
Germany,Stralsund-Knieperdamm,DEMV025,Traffic,Urban,PTAC043,Nitrogen dioxide ,54.319230000000005,13.081010000000001,581.0,Continuous data collection,2011-09-30T23:00:01Z,Not Specified,PMME045,Chemiluminescence,2011,air,1
Germany,Speyer-Nord,DERP053,Background,Suburban,PTAC043,Nitrogen dioxide ,49.351124,8.423,210.0,Continuous data collection,2013-11-14T23:00:01Z,2013-12-31T24:00:00+01:00,PMME045,Chemiluminescence,2013,air,1
Germany,Zingst,DEUB028,Background,Rural,PTAC061,sulphate in PM2.5 ,54.436985,12.721938,77.0,Continuous data collection,2010-05-31T23:00:01Z,2010-12-31T24:00:00+01:00,PMME024,Light absorption,2010,aerosol,0
Germany,Leipzig-West,DESN059,Background,Urban,PTAC052,Particulate matter < 2.5 µm ,51.317904999999996,12.297411,15.0,Continuous data collection,2009-12-31T23:00:01Z,Not Specified,PMME064,Light scattering,2009,aerosol,0
Germany,Nürnberg/Von-der-Tann-Straße,DEBY120,Traffic,Urban,PTAC039,Nickel in PM10 ,49.440478000000006,11.036096,67.0,Continuous data collection,2011-12-31T23:00:01Z,Not Specified,PMME064,Light scattering,2011,aerosol,0
Germany,Freiberg,DESN017,Background,Urban,PTAC010,Cadmium in PM10 ,50.9163,13.346826,15.0,Continuous data collection,1998-02-01T23:00:01Z,Not Specified,PMME064,Light scattering,1998,aerosol,0
Germany,Oker/Harlingerode,DENI016,Background,Suburban,PTAC007,Arsenic in PM10 ,51.901579999999996,10.48132,70.0,Continuous data collection,2017-12-31T23:00:01Z,Not Specified,PMME064,Light scattering,2017,aerosol,0
Germany,Eisenhüttenstadt,DEBB032,Industrial,Suburban,PTAC030,"m,p-Xylene ",52.146264,14.638166,538.0,Continuous data collection,2018-12-31T23:00:01Z,Not Specified,PMME045,Chemiluminescence,2018,air,1
Germany,Saalfeld,DETH005,Background,Urban,PTAC049,Ozone ,50.651182,11.368875,75.0,Continuous data collection,1994-06-26T23:00:01Z,Not Specified,PMME056,Ultraviolet (UV) photometry,1994,air,1
Germany,Fürth/Theresienstraße,DEBY056,Traffic,Urban,PTAC044,Nitrogen monoxide ,49.47221,10.984705,570.0,Continuous data collection,1990-10-31T23:00:01Z,2013-02-04T24:00:00+01:00,PMME045,Chemiluminescence,1990,air,1
Germany,"Cottbus, Bahnhofstr.",DEBB044,Traffic,Urban,PTAC044,Nitrogen monoxide ,51.756593,14.327998000000001,10.0,Continuous data collection,2012-12-02T23:00:01Z,Not Specified,PMME045,Chemiluminescence,2012,air,1
Germany,Hamburg Hafen,DEHH081,Background,Urban,PTAC062,Sulphur dioxide ,53.529157999999995,9.981599000000001,67.0,Continuous data collection,2015-09-28T23:00:01Z,Not Specified,PMME044,UV fluorescence,2015,air,1
Germany,Wuppertal Gathe,DENW189,Traffic,Urban,PTAC043,Nitrogen dioxide ,51.260684000000005,7.147378,71.0,Continuous data collection,2005-06-29T23:00:01Z,2011-12-31T24:00:00+01:00,PMME045,Chemiluminescence,2005,air,1
Germany,Weimar Steubenstr.,DETH083,Traffic,Urban,PTAC051,Particulate matter < 10 µm ,50.977462,11.32607,75.0,Continuous data collection,2018-01-11T23:00:01Z,Not Specified,PMME064,Light scattering,2018,aerosol,0
Germany,Radebeul-Wahnsdorf,DESN051,Background,Rural-Near_city,PTAC007,Arsenic in PM10 ,51.119514,13.675004999999999,208.0,Continuous data collection,1999-01-03T23:00:01Z,Not Specified,PMME031,Beta ray attenuation,1999,aerosol,0
Germany,Brunsbüttel,DESH011,Industrial,Rural-Regional,PTAC044,Nitrogen monoxide ,53.908822,9.223875,209.0,Continuous data collection,1994-03-16T23:00:01Z,2010-12-31T24:00:00+01:00,PMME045,Chemiluminescence,1994,air,1
Germany,Hamburg Simon-von-Utrecht-Straße 66,DEHH078,Traffic,Urban,PTAC044,Nitrogen monoxide ,53.551042,9.965585,580.0,Continuous data collection,2010-07-22T23:00:01Z,2011-10-17T24:00:00+01:00,PMME045,Chemiluminescence,2010,air,1
Germany,Westerwald-Neuhäusel,DERP028,Background,Rural,PTAC045,Nitrogen oxides ,50.424289,7.729908999999999,209.0,Continuous data collection,1993-12-31T23:00:01Z,Not Specified,PMME045,Chemiluminescence,1993,air,1
Germany,Schwäbisch Hall,DEBW056,Background,Suburban,PTAC051,Particulate matter < 10 µm ,49.107878,9.733231,195.0,Continuous data collection,2017-12-31T23:00:01Z,2018-05-24T24:00:00+01:00,PMME028,Non-dispersive infrared spectroscopy (NDIR),2017,aerosol,0
Germany,Göhlen,DEMV017,Background,Rural,PTAC043,Nitrogen dioxide ,53.302352,11.362964999999999,199.0,Continuous data collection,1998-01-31T23:00:01Z,Not Specified,PMME045,Chemiluminescence,1998,air,1
Germany,Pfinztal Karlsruher Straße,DEBW125,Traffic,Suburban,PTAC039,Nickel in PM10 ,49.00371,8.52628,566.0,Continuous data collection,2010-12-31T23:00:01Z,2015-12-31T24:00:00+01:00,PMME045,Chemiluminescence,2010,aerosol,0
Germany,Pfälzerwald-Hortenkopf,DERP017,Background,Rural,PTAC043,Nitrogen dioxide ,49.270263,7.826407000000001,605.0,Continuous data collection,2014-12-31T23:00:01Z,Not Specified,PMME044,UV fluorescence,2014,air,1
Germany,Marburg-Univers.Straße,DEHE062,Traffic,Urban,PTAC030,"m,p-Xylene ",50.807167,8.770508,200.0,Continuous data collection,2010-12-31T23:00:01Z,Not Specified,PMME031,Beta ray attenuation,2010,air,1
Germany,Hagen Graf-von-Galen-Ring,DENW133,Traffic,Urban,PTAC063,Toluene ,51.362818,7.46355,597.0,Continuous data collection,2018-12-31T23:00:01Z,Not Specified,PMME045,Chemiluminescence,2018,air,1
Germany,Simmerath (Eifel),DENW064,Background,Rural-Regional,PTAC049,Ozone ,50.653234000000005,6.281008,589.0,Continuous data collection,1983-08-31T23:00:01Z,2011-12-31T24:00:00+01:00,PMME056,Ultraviolet (UV) photometry,1983,air,1
Germany,Fichtelberg,DESN053,Background,Rural-Remote,PTAC049,Ozone ,50.428488,12.953459,15.0,Continuous data collection,1990-12-31T23:00:01Z,2012-12-31T24:00:00+01:00,PMME056,Ultraviolet (UV) photometry,1990,air,1
Germany,Eichsfeld,DENI028,Background,Suburban,PTAC044,Nitrogen monoxide ,51.50758,10.238539999999999,203.0,Continuous data collection,2009-12-31T23:00:01Z,Not Specified,PMME045,Chemiluminescence,2009,air,1
Germany,Schauinsland,DEUB004,Background,Rural-Regional,PTAC027,indeno_123cd_pyrene in PM10 ,47.913256,7.908035000000001,213.0,Continuous data collection,2006-12-31T23:00:01Z,Not Specified,PMME031,Beta ray attenuation,2006,aerosol,0
Germany,Bad Hindelang/Oberjoch,DEBY122,Background,Rural-Regional,PTAC045,Nitrogen oxides ,47.518013,10.404232,573.0,Continuous data collection,2010-06-20T23:00:01Z,Not Specified,PMME045,Chemiluminescence,2010,air,1
Germany,Kempten (Allgäu)/Westendstraße,DEBY031,Background,Suburban,PTAC043,Nitrogen dioxide ,47.72514,10.306561,12.0,Continuous data collection,1993-07-31T23:00:01Z,Not Specified,PMME045,Chemiluminescence,1993,air,1
Germany,Neuglobsow,DEUB030,Background,Rural-Regional,PTAC055,potassium in PM2.5 ,53.141303,13.031661999999999,76.0,Continuous data collection,2010-05-31T23:00:01Z,2010-12-31T24:00:00+01:00,PMME024,Light absorption,2010,aerosol,0
Germany,Spremberg,DEBB083,Background,Suburban,PTAC062,Sulphur dioxide ,51.5645,14.3764,12.0,Continuous data collection,2009-05-05T23:00:01Z,2016-12-31T24:00:00+01:00,PMME044,UV fluorescence,2009,air,1
Germany,"Brandenburg, Neuendorfer Str.",DEBB049,Traffic,Urban,PTAC013,calcium in PM2.5 ,52.409309,12.548376,62.0,Continuous data collection,2014-12-31T23:00:01Z,2015-12-31T24:00:00+01:00,PMME064,Light scattering,2014,aerosol,0
Germany,Zugspitze Schneefernerhaus,DEUB044,Background,Rural-Remote,PTAC051,Particulate matter < 10 µm ,47.414436,10.980657,653.0,Continuous data collection,2015-08-31T23:00:01Z,Not Specified,PMME056,Ultraviolet (UV) photometry,2015,aerosol,0
Germany,Aschersleben,DEST095,Traffic,Urban,PTAC051,Particulate matter < 10 µm ,51.759516,11.449471,15.0,Continuous data collection,2002-12-31T23:00:01Z,2016-12-31T24:00:00+01:00,PMME064,Light scattering,2002,aerosol,0
Germany,Dortmund Brackeler Straße,DENW136,Traffic,Urban,PTAC051,Particulate matter < 10 µm ,51.523543,7.483561999999999,73.0,Continuous data collection,2003-12-31T23:00:01Z,2011-07-05T24:00:00+01:00,PMME019,Tapered Element Oscillating Microbalance (TEOM),2003,aerosol,0
Germany,Greiz Mollbergstr.,DETH036,Background,Urban,PTAC052,Particulate matter < 2.5 µm ,50.655861,12.205199,210.0,Continuous data collection,2007-12-31T23:00:01Z,2010-10-04T24:00:00+01:00,PMME031,Beta ray attenuation,2007,aerosol,0
Germany,Berlin Michael-Brückner-Straße,DEBE090,Traffic,Urban,PTAC043,Nitrogen dioxide ,52.45512900000001,13.511998,554.0,Continuous data collection,2017-12-31T23:00:01Z,Not Specified,PMME045,Chemiluminescence,2017,air,1
Germany,Marburg Universitätsstraße 4,DEHE142,Traffic,Urban,PTAC043,Nitrogen dioxide ,50.807107,8.770033,581.0,Continuous data collection,2018-12-31T23:00:01Z,Not Specified,PMME045,Chemiluminescence,2018,air,1
Germany,Dreißigacker,DETH026,Background,Rural-Regional,PTAC045,Nitrogen oxides ,50.561754,10.375299,630.0,Continuous data collection,1999-03-24T23:00:01Z,Not Specified,PMME045,Chemiluminescence,1999,air,1
Germany,Potsdam-Zentrum,DEBB021,Background,Urban,PTAC051,Particulate matter < 10 µm ,52.401352,13.059944999999999,540.0,Continuous data collection,2013-12-31T23:00:01Z,2014-12-31T24:00:00+01:00,PMME045,Chemiluminescence,2013,aerosol,0
Germany,Markgröningen Grabenstraße,DEBW142,Traffic,Suburban,PTAC043,Nitrogen dioxide ,48.90292,9.08135,195.0,Continuous data collection,2010-12-31T23:00:01Z,Not Specified,PMME028,Non-dispersive infrared spectroscopy (NDIR),2010,air,1
Germany,Hannover Verkehr,DENI048,Traffic,Urban,PTAC010,Cadmium in PM10 ,52.359478,9.7155,581.0,Continuous data collection,2011-12-31T23:00:01Z,2018-02-11T24:00:00+01:00,PMME045,Chemiluminescence,2011,aerosol,0
Germany,Spremberg,DEBB083,Background,Suburban,PTAC031,magnesium in PM10 ,51.5645,14.3764,12.0,Continuous data collection,2010-12-31T23:00:01Z,2011-12-31T24:00:00+01:00,PMME064,Light scattering,2010,aerosol,0
Germany,"Potsdam, Großbeerenstr.",DEBB073,Traffic,Urban,PTAC043,Nitrogen dioxide ,52.388869,13.094617999999999,65.0,Continuous data collection,2006-06-11T23:00:01Z,Not Specified,PMME045,Chemiluminescence,2006,air,1
Germany,Bornhöved,DESH008,Background,Rural-Regional,PTAC007,Arsenic in PM10 ,54.093230000000005,10.240596,615.0,Continuous data collection,2000-12-31T23:00:01Z,2010-12-31T24:00:00+01:00,PMME044,UV fluorescence,2000,aerosol,0
Germany,Schauinsland,DEUB004,Background,Rural-Regional,PTAC052,Particulate matter < 2.5 µm ,47.913256,7.908035000000001,15.0,Continuous data collection,2010-12-31T23:00:01Z,Not Specified,PMME064,Light scattering,2010,aerosol,0
Germany,Bremen-Hasenbüren,DEHB013,Industrial,Rural-Regional,PTAC051,Particulate matter < 10 µm ,53.1177,8.69506,65.0,Continuous data collection,2010-06-07T23:00:01Z,Not Specified,PMME041,Nephelometry + BETA,2010,aerosol,0
Germany,Heidelberg,DEBW009,Background,Urban,PTAC043,Nitrogen dioxide ,49.419528,8.6767,555.0,Continuous data collection,1983-12-31T23:00:01Z,Not Specified,PMME045,Chemiluminescence,1983,air,1
Germany,Gießen-Westanlage,DEHE061,Traffic,Urban,PTAC009,Benzene ,50.584108,8.668579,12.0,Continuous data collection,2010-12-31T23:00:01Z,Not Specified,PMME064,Light scattering,2010,air,1
Germany,Lüneburger Heide,DENI062,Background,Suburban,PTAC045,Nitrogen oxides ,53.246959999999994,10.4565,13.0,Continuous data collection,2009-12-31T23:00:01Z,Not Specified,PMME045,Chemiluminescence,2009,air,1
Germany,Fulda-Petersberger Str.,DEHE059,Traffic,Urban,PTAC043,Nitrogen dioxide ,50.550028000000005,9.684854,573.0,Continuous data collection,2005-09-22T23:00:01Z,Not Specified,PMME045,Chemiluminescence,2005,air,1
Germany,Neuss Batteriestraße,DENW290,Traffic,Urban,PTAC043,Nitrogen dioxide ,51.20077,6.6935,72.0,Continuous data collection,2009-12-31T23:00:01Z,Not Specified,PMME064,Light scattering,2009,air,1
Germany,Westpfalz-Waldmohr,DERP013,Background,Rural,PTAC045,Nitrogen oxides ,49.423116,7.293543,15.0,Continuous data collection,1983-12-31T23:00:01Z,Not Specified,PMME045,Chemiluminescence,1983,air,1
Germany,Schmücke,DEUB029,Background,Rural,PTAC018,cis-2-Butene ,50.654066,10.769534,647.0,Continuous data collection,2016-12-31T23:00:01Z,Not Specified,PMME056,Ultraviolet (UV) photometry,2016,air,1
Germany,Dinslaken Wilhelm-Lantermann-Straße,DENW224,Traffic,Urban,PTAC051,Particulate matter < 10 µm ,51.564752,6.7406619999999995,610.0,Continuous data collection,2008-01-02T23:00:01Z,2011-01-02T24:00:00+01:00,PMME019,Tapered Element Oscillating Microbalance (TEOM),2008,aerosol,0
Germany,Elsterwerda,DEBB007,Background,Suburban,PTAC025,Ethyl benzene ,51.462734000000005,13.526796,11.0,Continuous data collection,2012-12-31T23:00:01Z,2013-12-31T24:00:00+01:00,PMME064,Light scattering,2012,air,1
Germany,Schauinsland,DEUB004,Background,Rural-Regional,PTAC051,Particulate matter < 10 µm ,47.913256,7.908035000000001,15.0,Continuous data collection,2016-10-19T23:00:01Z,Not Specified,PMME041,Nephelometry + BETA,2016,aerosol,0
Germany,Frankfurt-Höchst,DEHE005,Background,Urban,PTAC051,Particulate matter < 10 µm ,50.10175,8.542517,195.0,Continuous data collection,2001-12-31T23:00:01Z,Not Specified,PMME028,Non-dispersive infrared spectroscopy (NDIR),2001,aerosol,0
Germany,Duisburg-Bruckhausen,DENW338,Industrial,Urban,PTAC007,Arsenic in PM10 ,51.485492,6.735431,203.0,Continuous data collection,2013-12-31T23:00:01Z,Not Specified,PMME031,Beta ray attenuation,2013,aerosol,0
Germany,Frankfurt-Sindlingen,DEHE009,Background,Urban,PTAC028,Lead in PM10 ,50.080726,8.515592,196.0,Continuous data collection,2008-01-02T23:00:01Z,2014-12-31T24:00:00+01:00,PMME028,Non-dispersive infrared spectroscopy (NDIR),2008,aerosol,0
Germany,Bonn-Auerberg,DENW062,Background,Suburban,PTAC043,Nitrogen dioxide ,50.753629,7.082648,588.0,Continuous data collection,1986-11-30T23:00:01Z,2011-12-31T24:00:00+01:00,PMME045,Chemiluminescence,1986,air,1
Germany,Berlin Buch,DEBE051,Background,Suburban,PTAC045,Nitrogen oxides ,52.64416899999999,13.483079,552.0,Continuous data collection,1993-05-31T23:00:01Z,Not Specified,PMME045,Chemiluminescence,1993,air,1
Germany,Michelstadt,DEHE045,Background,Urban,PTAC062,Sulphur dioxide ,49.672507,9.001980999999999,571.0,Continuous data collection,2009-09-14T23:00:01Z,Not Specified,PMME044,UV fluorescence,2009,air,1
Germany,Schweinfurt/Obertor,DEBY068,Background,Urban,PTAC051,Particulate matter < 10 µm ,50.048396999999994,10.232076,198.0,Continuous data collection,2000-01-31T23:00:01Z,Not Specified,PMME031,Beta ray attenuation,2000,aerosol,0
Germany,Rostock-Holbeinplatz,DEMV022,Traffic,Urban,PTAC045,Nitrogen oxides ,54.09262,12.099553,13.0,Continuous data collection,2008-01-24T23:00:01Z,Not Specified,PMME045,Chemiluminescence,2008,air,1
Germany,Stralsund,DEMV006,Traffic,Urban,PTAC063,Toluene ,54.306722,13.066673,13.0,Continuous data collection,1998-12-31T23:00:01Z,2010-06-30T24:00:00+01:00,PMME004,Gas chromatography,1998,air,1
Germany,Karlsruhe-Mitte,DEBW001,Traffic,Urban,PTAC044,Nitrogen monoxide ,49.010114,8.418378,554.0,Continuous data collection,1975-12-31T23:00:01Z,2010-12-31T24:00:00+01:00,PMME045,Chemiluminescence,1975,air,1
Germany,Lütte (Belzig),DEBB065,Background,Rural-Regional,PTAC052,Particulate matter < 2.5 µm ,52.194225,12.561389,65.0,Continuous data collection,2014-01-13T23:00:01Z,2014-12-31T24:00:00+01:00,PMME041,Nephelometry + BETA,2014,aerosol,0
Germany,Braubach,DERP043,Industrial,Rural,PTAC010,Cadmium in PM10 ,50.275108,7.652114999999999,15.0,Continuous data collection,1999-11-18T23:00:01Z,2016-12-31T24:00:00+01:00,PMME064,Light scattering,1999,aerosol,0
Germany,Waldshut,DEBW040,Traffic,Suburban,PTAC049,Ozone ,47.618006,8.223147,195.0,Continuous data collection,1989-11-28T23:00:01Z,2010-12-31T24:00:00+01:00,PMME056,Ultraviolet (UV) photometry,1989,air,1
Germany,Waldhof,DEUB005,Background,Rural,PTAC051,Particulate matter < 10 µm ,52.800773,10.756733,650.0,Continuous data collection,1997-12-31T23:00:01Z,Not Specified,PMME056,Ultraviolet (UV) photometry,1997,aerosol,0
Germany,Bochum Herner Straße,DENW204,Traffic,Urban,PTAC043,Nitrogen dioxide ,51.51101,7.210564999999999,206.0,Continuous data collection,2011-01-04T23:00:01Z,2011-12-31T24:00:00+01:00,PMME045,Chemiluminescence,2011,air,1
Germany,Krefeld-Stahldorf,DENW115,Industrial,Urban,PTAC028,Lead in PM10 ,51.307612,6.557419,600.0,Continuous data collection,2014-12-31T23:00:01Z,2015-05-31T24:00:00+01:00,PMME045,Chemiluminescence,2014,aerosol,0
Germany,Burg,DEST002,Background,Suburban,PTAC043,Nitrogen dioxide ,52.268353999999995,11.864763,641.0,Continuous data collection,2009-11-04T23:00:01Z,Not Specified,PMME045,Chemiluminescence,2009,air,1
Germany,Aalen,DEBW029,Background,Suburban,PTAC049,Ozone ,48.847916999999995,10.096292,65.0,Continuous data collection,1982-02-28T23:00:01Z,Not Specified,PMME056,Ultraviolet (UV) photometry,1982,air,1
Germany,Warstein,DENW181,Industrial,Urban,PTAC039,Nickel in PM10 ,51.442993,8.360797,204.0,Continuous data collection,2006-01-08T23:00:01Z,2012-12-31T24:00:00+01:00,PMME031,Beta ray attenuation,2006,aerosol,0
Germany,Erlangen/Kraepelinstraße,DEBY113,Background,Suburban,PTAC045,Nitrogen oxides ,49.605914,10.963528,197.0,Continuous data collection,2004-03-31T23:00:01Z,Not Specified,PMME045,Chemiluminescence,2004,air,1
Germany,Saal a.d. Donau/Regensburger Straße,DEBY030,Background,Suburban,PTAC044,Nitrogen monoxide ,48.904228,11.948795,569.0,Continuous data collection,2012-01-16T23:00:01Z,Not Specified,PMME045,Chemiluminescence,2012,air,1
Germany,Mainz-Goetheplatz,DERP008,Background,Urban,PTAC015,Carbon monoxide ,50.01037,8.254603,203.0,Continuous data collection,1979-12-31T23:00:01Z,2012-09-21T24:00:00+01:00,PMME053,Infrared gas filter correlation,1979,air,1
Germany,Zinnwald,DESN052,Background,Rural-Regional,PTAC049,Ozone ,50.731478,13.75145,208.0,Continuous data collection,2012-12-31T23:00:01Z,Not Specified,PMME056,Ultraviolet (UV) photometry,2012,air,1
Germany,Freiburg Schwarzwaldstraße,DEBW122,Traffic,Urban,PTAC039,Nickel in PM10 ,47.9882,7.85992,65.0,Continuous data collection,2014-12-31T23:00:01Z,2015-12-31T24:00:00+01:00,PMME064,Light scattering,2014,aerosol,0
Germany,Mühlhausen Kiliansgr.,DETH094,Traffic,Urban,PTAC039,Nickel in PM10 ,51.208535,10.465835,210.0,Continuous data collection,2009-12-31T23:00:01Z,2010-12-31T24:00:00+01:00,PMME031,Beta ray attenuation,2009,aerosol,0
Germany,Dresden-Nord,DESN061,Traffic,Urban,PTAC049,Ozone ,51.06493,13.741397000000001,75.0,Continuous data collection,2012-12-31T23:00:01Z,Not Specified,PMME056,Ultraviolet (UV) photometry,2012,air,1
Germany,Fulda-Petersberger Str.,DEHE059,Traffic,Urban,PTAC052,Particulate matter < 2.5 µm ,50.550028000000005,9.684854,12.0,Continuous data collection,2009-10-28T23:00:01Z,Not Specified,PMME041,Nephelometry + BETA,2009,aerosol,0
Germany,Neuwied-Hermannstraße,DERP046,Traffic,Urban,PTAC009,Benzene ,50.431439000000005,7.460717999999999,210.0,Continuous data collection,2012-05-07T23:00:01Z,Not Specified,PMME031,Beta ray attenuation,2012,air,1
Germany,Wesel-Feldmark,DENW030,Background,Suburban,PTAC049,Ozone ,51.67286,6.629658,200.0,Continuous data collection,1986-11-30T23:00:01Z,2011-12-31T24:00:00+01:00,PMME056,Ultraviolet (UV) photometry,1986,air,1
Germany,Mühlhausen Petristeinweg,DETH100,Traffic,Urban,PTAC043,Nitrogen dioxide ,51.210164,10.449634,210.0,Continuous data collection,2009-12-31T23:00:01Z,Not Specified,PMME031,Beta ray attenuation,2009,air,1
Germany,Aachen Wilhelmstraße,DENW207,Traffic,Urban,PTAC043,Nitrogen dioxide ,50.773126,6.09576,14.0,Continuous data collection,2007-01-09T23:00:01Z,Not Specified,PMME064,Light scattering,2007,air,1
Germany,Zugspitze Schneefernerhaus,DEUB044,Background,Rural-Remote,PTAC051,Particulate matter < 10 µm ,47.414436,10.980657,76.0,Continuous data collection,2010-10-21T23:00:01Z,2014-12-31T24:00:00+01:00,PMME031,Beta ray attenuation,2010,aerosol,0
Germany,Dortmund Steinstraße,DENW101,Traffic,Urban,PTAC063,Toluene ,51.5196,7.464249000000001,71.0,Continuous data collection,2002-01-02T23:00:01Z,2019-12-31T24:00:00+01:00,PMME064,Light scattering,2002,air,1
Germany,Nauen,DEBB067,Background,Suburban,PTAC042,Nitrate in PM2.5 ,52.608608999999994,12.885194,11.0,Continuous data collection,2019-12-31T23:00:01Z,Not Specified,PMME064,Light scattering,2019,aerosol,0
Germany,Bottrop-Welheim,DENW021,Industrial,Urban,PTAC048,o-Xylene ,51.525954999999996,6.97688,14.0,Continuous data collection,2001-03-18T23:00:01Z,Not Specified,PMME064,Light scattering,2001,air,1
Germany,Fürth/Odenwald,DEHE028,Background,Rural,PTAC044,Nitrogen monoxide ,49.653465000000004,8.817250999999999,69.0,Continuous data collection,1986-09-30T23:00:01Z,Not Specified,PMME045,Chemiluminescence,1986,air,1
Germany,Annaberg-Buchholz,DESN001,Background,Urban,PTAC049,Ozone ,50.570871999999994,12.997278,74.0,Continuous data collection,1994-08-31T23:00:01Z,2012-12-31T24:00:00+01:00,PMME056,Ultraviolet (UV) photometry,1994,air,1
Germany,Schauinsland,DEUB004,Background,Rural-Regional,PTAC013,calcium in PM2.5 ,47.913256,7.908035000000001,15.0,Continuous data collection,2010-12-31T23:00:01Z,2013-12-31T24:00:00+01:00,PMME064,Light scattering,2010,aerosol,0
Germany,"Cottbus, W.-Külz-Str.",DEBB087,Traffic,Urban,PTAC063,Toluene ,51.754129999999996,14.325548999999999,64.0,Continuous data collection,2011-01-03T23:00:01Z,2016-12-31T24:00:00+01:00,PMME064,Light scattering,2011,air,1
Germany,Eberswalde Breite Straße,DEBB060,Traffic,Urban,PTAC063,Toluene ,52.832467,13.822211,65.0,Continuous data collection,2017-12-31T23:00:01Z,2018-12-31T24:00:00+01:00,PMME064,Light scattering,2017,air,1
Germany,Augsburg/LfU,DEBY099,Background,Suburban,PTAC009,Benzene ,48.326013,10.903051,198.0,Continuous data collection,2018-12-31T23:00:01Z,Not Specified,PMME004,Gas chromatography,2018,air,1
Germany,Waldhof,DEUB005,Background,Rural,PTAC050,Particulate matter < 1 µm ,52.800773,10.756733,214.0,Continuous data collection,2003-09-30T23:00:01Z,Not Specified,PMME031,Beta ray attenuation,2003,aerosol,0
Germany,Berlin Hardenbergplatz,DEBE067,Traffic,Urban,PTAC045,Nitrogen oxides ,52.5066,13.332972,192.0,Continuous data collection,2003-12-31T23:00:01Z,Not Specified,PMME045,Chemiluminescence,2003,air,1
Germany,Hattingen-Blankenstein,DENW029,Background,Suburban,PTAC043,Nitrogen dioxide ,51.403007,7.208546000000001,14.0,Continuous data collection,1986-11-30T23:00:01Z,2011-12-31T24:00:00+01:00,PMME045,Chemiluminescence,1986,air,1
Germany,Brunsbüttel,DESH011,Industrial,Rural-Regional,PTAC043,Nitrogen dioxide ,53.908822,9.223875,14.0,Continuous data collection,1994-03-16T23:00:01Z,2010-12-31T24:00:00+01:00,PMME045,Chemiluminescence,1994,air,1
Germany,Hamburg Veddel,DEHH015,Industrial,Urban,PTAC045,Nitrogen oxides ,53.523262,10.021227,67.0,Continuous data collection,2000-12-26T23:00:01Z,Not Specified,PMME045,Chemiluminescence,2000,air,1
Germany,"Brandenburg, Neuendorfer Str.",DEBB049,Traffic,Urban,PTAC054,potassium in PM10 ,52.409309,12.548376,11.0,Continuous data collection,2009-12-31T23:00:01Z,2010-12-31T24:00:00+01:00,PMME064,Light scattering,2009,aerosol,0
Germany,Wiesbaden-Süd,DEHE022,Background,Urban,PTAC028,Lead in PM10 ,50.050343,8.244949,66.0,Continuous data collection,2000-07-31T23:00:01Z,Not Specified,PMME064,Light scattering,2000,aerosol,0
Germany,"Bernau, Lohmühlenstr.",DEBB068,Traffic,Urban,PTAC063,Toluene ,52.677651000000004,13.582269,190.0,Continuous data collection,2006-12-31T23:00:01Z,2010-01-04T24:00:00+01:00,PMME024,Light absorption,2006,air,1
Germany,Dallgow-Döberitz,DEBB110,Background,Suburban,PTAC015,Carbon monoxide ,52.539504,13.048779,11.0,Continuous data collection,2019-06-18T23:00:01Z,Not Specified,PMME053,Infrared gas filter correlation,2019,air,1
Germany,Wiesbaden-Ringkirche,DEHE037,Traffic,Urban,PTAC043,Nitrogen dioxide ,50.077191,8.230316,576.0,Continuous data collection,1991-07-31T23:00:01Z,Not Specified,PMME045,Chemiluminescence,1991,air,1
Germany,"Brandenburg, Neuendorfer Str.",DEBB049,Traffic,Urban,PTAC030,"m,p-Xylene ",52.409309,12.548376,550.0,Continuous data collection,2018-12-31T23:00:01Z,2019-12-31T24:00:00+01:00,PMME045,Chemiluminescence,2018,air,1
Germany,Magdeburg/Reuterallee,DEST099,Traffic,Urban,PTAC043,Nitrogen dioxide ,52.131198,11.631161,210.0,Continuous data collection,2006-01-29T23:00:01Z,2015-07-13T24:00:00+01:00,PMME045,Chemiluminescence,2006,air,1
Germany,Schwäbische Alb,DEBW087,Background,Rural-Regional,PTAC062,Sulphur dioxide ,48.345778,9.207639,65.0,Continuous data collection,1994-04-26T23:00:01Z,2016-12-31T24:00:00+01:00,PMME044,UV fluorescence,1994,air,1
Germany,Schwäbische Alb,DEBW087,Background,Rural-Regional,PTAC049,Ozone ,48.345778,9.207639,65.0,Continuous data collection,1994-04-26T23:00:01Z,Not Specified,PMME056,Ultraviolet (UV) photometry,1994,air,1
Germany,Mülheim Hofackerstraße 46-48,DENW301,Industrial,Urban,PTAC028,Lead in PM10 ,51.431472,6.847664,610.0,Continuous data collection,2011-01-16T23:00:01Z,2017-12-31T24:00:00+01:00,PMME044,UV fluorescence,2011,aerosol,0
Germany,Gelsenkirchen-Bismarck,DENW022,Background,Suburban,PTAC044,Nitrogen monoxide ,51.533640000000005,7.101868,584.0,Continuous data collection,2011-12-31T23:00:01Z,Not Specified,PMME045,Chemiluminescence,2011,air,1
Germany,Bautzen,DESN004,Background,Urban,PTAC044,Nitrogen monoxide ,51.175669,14.443771,15.0,Continuous data collection,2012-12-31T23:00:01Z,Not Specified,PMME045,Chemiluminescence,2012,air,1
Germany,Datteln Bahnhof,DENW129,Industrial,Suburban,PTAC039,Nickel in PM10 ,51.624062,7.321091,594.0,Continuous data collection,2003-09-15T23:00:01Z,2010-12-31T24:00:00+01:00,PMME045,Chemiluminescence,2003,aerosol,0
Germany,Schmücke,DEUB029,Background,Rural,PTAC057,Propene ,50.654066,10.769534,646.0,Continuous data collection,1997-12-31T23:00:01Z,2013-12-31T24:00:00+01:00,PMME056,Ultraviolet (UV) photometry,1997,air,1
Germany,Waiblingen,DEBW034,Background,Suburban,PTAC049,Ozone ,48.832083000000004,9.300811,558.0,Continuous data collection,1986-05-31T23:00:01Z,2010-12-31T24:00:00+01:00,PMME056,Ultraviolet (UV) photometry,1986,air,1
Germany,Köln Turiner Straße,DENW212,Traffic,Urban,PTAC044,Nitrogen monoxide ,50.947268,6.957649000000001,206.0,Continuous data collection,2007-03-28T23:00:01Z,2011-12-31T24:00:00+01:00,PMME045,Chemiluminescence,2007,air,1
Germany,DHA80 Frankfurt-Mitte (Technisches Rathaus),DEHE056,Background,Urban,PTAC051,Particulate matter < 10 µm ,50.110828999999995,8.683638,200.0,Continuous data collection,2003-01-01T23:00:01Z,Not Specified,PMME031,Beta ray attenuation,2003,aerosol,0
Germany,Leipzig-West,DESN059,Background,Urban,PTAC043,Nitrogen dioxide ,51.317904999999996,12.297411,208.0,Continuous data collection,1994-08-31T23:00:01Z,2012-12-31T24:00:00+01:00,PMME045,Chemiluminescence,1994,air,1
Germany,Nordhausen,DETH018,Background,Urban,PTAC044,Nitrogen monoxide ,51.497195,10.791404,15.0,Continuous data collection,1993-04-07T23:00:01Z,Not Specified,PMME045,Chemiluminescence,1993,air,1
Germany,Spremberg,DEBB083,Background,Suburban,PTAC048,o-Xylene ,51.5645,14.3764,557.0,Continuous data collection,2010-12-31T23:00:01Z,2011-12-31T24:00:00+01:00,PMME045,Chemiluminescence,2010,air,1
Germany,Eberswalde Breite Straße,DEBB060,Traffic,Urban,PTAC025,Ethyl benzene ,52.832467,13.822211,65.0,Continuous data collection,2015-12-31T23:00:01Z,2016-12-31T24:00:00+01:00,PMME064,Light scattering,2015,air,1
